[{"taille":{"h":19,"p":360},"nom":"Sequoia","info":{"genre":"Sequoiadendron","espece":"giganteum","stade_developpement":"Mature"},"id":"6abd09a71ca15fc16b1764c021aa2f7cb88fb5bf","geo":{"type":"Point","coordinates":[2.319515216986099,48.86697545795968]},"meta":{"arrondissement":"PARIS 8E ARRDT","adresse":"JARDINS DES CHAMPS ELYSEES - JARDIN DES AMBASSADEURS / 10 AVENUE DES CHAMPS ELYSEES"},"date":"1700-01-01T01:02:49+00:53"},{"taille":{"h":28,"p":511},"nom":"Sequoia","info":{"genre":"Sequoiadendron","espece":"giganteum","stade_developpement":"Adulte"},"id":"be8cc122a7a614ef17aafb7d8622cbff809cfab8","geo":{"type":"Point","coordinates":[2.247713437924517,48.8694582820089]},"meta":{"arrondissement":"BOIS DE BOULOGNE","adresse":"PARC DE BAGATELLE - ALLEE DE LONGCHAMP / ROUTE DE SEVRES A NEUILLY"},"date":"1850-01-01T01:02:49+00:53"},{"taille":{"h":32,"p":634},"nom":"Sequoia","info":{"genre":"Sequoiadendron","espece":"giganteum","stade_developpement":"Adulte"},"id":"aeeefe9b5f090d5dc9becc351a71c2e51ee1cde4","geo":{"type":"Point","coordinates":[2.252676243999831,48.86481794495802]},"meta":{"arrondissement":"BOIS DE BOULOGNE","adresse":"JARDIN DU PRE CATELAN - CARREFOUR DE LA GRANDE CASCADE / CARREFOUR DE LA CROIX CATELAN"},"date":"1872-01-01T01:02:49+00:53"},{"taille":{"h":27,"p":510},"nom":"Sequoia","info":{"genre":"Sequoiadendron","espece":"giganteum","stade_developpement":"Mature"},"id":"a85d4829d0cd7b242f9b673f6bf5e3dc2d5eb57b","geo":{"type":"Point","coordinates":[2.38066315428459,48.8797546766506]},"meta":{"arrondissement":"PARIS 19E ARRDT","adresse":"PARC DES BUTTES CHAUMONT"},"date":"1700-01-01T01:02:49+00:53"},{"taille":{"h":28,"p":335},"nom":"Sequoia","info":{"genre":"Sequoiadendron","espece":"giganteum","stade_developpement":"Mature"},"id":"a4be962e8e642a519e708c77e76ed465dedaf84f","geo":{"type":"Point","coordinates":[2.257499755067836,48.87647407978168]},"meta":{"arrondissement":"BOIS DE BOULOGNE","adresse":"ROUTE DE LA PORTE SAINT-JAMES"},"date":"1850-01-01T01:02:49+00:53"}]