[{"taille":{"h":0,"p":0},"nom":"Alangium","info":{"genre":"Alangium","espece":"platanifolium"},"id":"2f24780e2bc71e7adef15323b3a37ff6cd5f662c","geo":{"type":"Point","coordinates":[2.458852341920799,48.82165394007485]},"meta":{"arrondissement":"BOIS DE VINCENNES","adresse":"ARBORETUM DE L ECOLE DU BREUIL - ROUTE DE LA FERME / ROUTE DE LA PYRAMIDE"}},{"taille":{"h":3,"p":20},"nom":"Alangium","info":{"genre":"Alangium","espece":"platanifolium","stade_developpement":"Jeune (arbre)","variete":"''Macrophyllum''"},"id":"4577905af074195daed119f6befe4096e87eca0a","geo":{"type":"Point","coordinates":[2.458466146857317,48.823369106100614]},"meta":{"arrondissement":"BOIS DE VINCENNES","adresse":"ECOLE DU BREUIL / ROUTE DE LA FERME"}},{"taille":{"h":3,"p":20},"nom":"Alangium","info":{"genre":"Alangium","espece":"n. sp.","stade_developpement":"Jeune (arbre)"},"id":"1e5af4a5c582e82dfead45540cec15664a2c5c53","geo":{"type":"Point","coordinates":[2.252107357636785,48.84607718770382]},"meta":{"arrondissement":"PARIS 16E ARRDT","adresse":"JARDIN DES SERRES D AUTEUIL / 1 AVENUE GORDON BENNETT"}},{"taille":{"h":5,"p":20},"nom":"Alangium","info":{"genre":"Alangium","espece":"platanifolium"},"id":"318385061df7d8d1cb48390400862c489804ef06","geo":{"type":"Point","coordinates":[2.414087750503017,48.90994187853007]},"meta":{"arrondissement":"SEINE-SAINT-DENIS","adresse":"CIMETIERE DE PANTIN / DIV 46"}},{"taille":{"h":5,"p":20},"nom":"Alangium","info":{"genre":"Alangium","espece":"platanifolium"},"id":"326b1fb3880e6980b2e8a57cce614f90735b0203","geo":{"type":"Point","coordinates":[2.272688636531773,48.83078622447751]},"meta":{"arrondissement":"PARIS 15E ARRDT","adresse":"PARC OMNISPORT SUZANNE LENGLEN / 7 BOULEVARD DES FRERES VOISIN"}},{"taille":{"h":5,"p":20},"nom":"Alangium","info":{"genre":"Alangium","espece":"platanifolium"},"id":"c9cdac7dcf64bc1a8fb2a0e4988c3772fec5ccc7","geo":{"type":"Point","coordinates":[2.403009962321475,48.90776380089873]},"meta":{"arrondissement":"SEINE-SAINT-DENIS","adresse":"CIMETIERE DE PANTIN / DIV 8"}},{"taille":{"h":4,"p":30},"nom":"Alangium","info":{"genre":"Alangium","espece":"sinensis","stade_developpement":"Jeune (arbre)Adulte"},"id":"f85498773c0c7b8d739faa0983e561ee5d926865","geo":{"type":"Point","coordinates":[2.251236654441716,48.84602292360674]},"meta":{"arrondissement":"PARIS 16E ARRDT","adresse":"JARDIN DES SERRES D AUTEUIL / 1 AVENUE GORDON BENNETT"}}]