[{"taille":{"h":4,"p":32},"nom":"Arbre aux mouchoirs","info":{"genre":"Davidia","espece":"involucrata var. vilmoriniana"},"id":"324089b73ef251e1773ad3ede620a8f3ff6cf79b","geo":{"type":"Point","coordinates":[2.359640344928406,48.84995120279442]},"meta":{"arrondissement":"PARIS 4E ARRDT","adresse":"SQUARE BARYE / 2 BOULEVARD HENRI IV"}},{"taille":{"h":0,"p":0},"nom":"Arbre aux mouchoirs","info":{"genre":"Davidia","espece":"involucrata var. vilmoriniana"},"id":"d999e899a70805ef307e9e12d64fb0ed648975b4","geo":{"type":"Point","coordinates":[2.28475880987369,48.84106592769516]},"meta":{"arrondissement":"PARIS 15E ARRDT","adresse":"SQUARE DURANTON"}},{"taille":{"h":0,"p":0},"nom":"Arbre aux mouchoirs","info":{"genre":"Davidia","espece":"involucrata var. vilmoriniana","stade_developpement":"Jeune (arbre)"},"id":"39f9629b6c7eaa695fa17e162e858ce8fc5cc33c","geo":{"type":"Point","coordinates":[2.412296198135609,48.870453707046686]},"meta":{"arrondissement":"PARIS 20E ARRDT","adresse":"SQUARE EMMANUEL FLEURY / 40 RUE LE VAU"}},{"taille":{"h":5,"p":38},"nom":"Arbre aux mouchoirs","info":{"genre":"Davidia","espece":"involucrata var. vilmoriniana","stade_developpement":"Jeune (arbre)"},"id":"dced9a1fafa022cb892ee0289cd11f237f69ff75","geo":{"type":"Point","coordinates":[2.304016896182842,48.891941667453956]},"meta":{"arrondissement":"PARIS 17E ARRDT","adresse":"JARDIN CLAIRE MOTTE"}},{"taille":{"h":3,"p":10},"nom":"Arbre aux mouchoirs","info":{"genre":"Davidia","espece":"involucrata var. vilmoriniana","stade_developpement":"Jeune (arbre)"},"id":"a01aaa9a0ab42431e0135a938827d50bb4caa4e9","geo":{"type":"Point","coordinates":[2.29772845852047,48.828377145207874]},"meta":{"arrondissement":"PARIS 15E ARRDT","adresse":"SQUARE DU DOCTEUR CALMETTE / 2 RUE JEAN SICARD"}},{"taille":{"h":0,"p":0},"nom":"Arbre aux mouchoirs","info":{"genre":"Davidia","espece":"involucrata"},"id":"2052a72899bb792e5436b028bf122779ec686267","geo":{"type":"Point","coordinates":[2.45789299343817,48.82327772348968]},"meta":{"arrondissement":"BOIS DE VINCENNES","adresse":"ARBORETUM DE L ECOLE DU BREUIL - ROUTE DE LA FERME / ROUTE DE LA PYRAMIDE"}},{"taille":{"h":3,"p":26},"nom":"Arbre aux mouchoirs","info":{"genre":"Davidia","espece":"involucrata var. vilmoriniana","stade_developpement":"Jeune (arbre)"},"id":"105d597498c91b1681bf9a946d1913e475bb306a","geo":{"type":"Point","coordinates":[2.328877851406233,48.887722272070896]},"meta":{"arrondissement":"PARIS 18E ARRDT","adresse":"CIMETIERE DE MONTMARTRE / DIV 12"}},{"taille":{"h":3,"p":40},"nom":"Arbre aux mouchoirs","info":{"genre":"Davidia","espece":"involucrata","stade_developpement":"Adulte"},"id":"34e4379e8187bb543868c48d0280f98bbbf6bcea","geo":{"type":"Point","coordinates":[2.446551156105927,48.83696775091005]},"meta":{"arrondissement":"BOIS DE VINCENNES","adresse":"PARC FLORAL DE PARIS / ROUTE DE LA PYRAMIDE"}},{"taille":{"h":0,"p":155},"nom":"Arbre aux mouchoirs","info":{"genre":"Davidia","espece":"involucrata"},"id":"324fc6313b45d3cc106639525830bd49c17b65b9","geo":{"type":"Point","coordinates":[2.269555020648764,48.83162644862221]},"meta":{"arrondissement":"PARIS 15E ARRDT","adresse":"PARC OMNISPORT SUZANNE LENGLEN / 7 BOULEVARD DES FRERES VOISIN"}},{"taille":{"h":12,"p":50},"nom":"Arbre aux mouchoirs","info":{"genre":"Davidia","espece":"involucrata var. vilmoriniana"},"id":"72bf37ae19a5aaff9298973b5501bc0817d53941","geo":{"type":"Point","coordinates":[2.370511627193499,48.831836103101445]},"meta":{"arrondissement":"PARIS 13E ARRDT","adresse":"SQUARE HELOISE ET ABELARD / 15 RUE DUCHEFDELAVILLE"}},{"taille":{"h":0,"p":0},"nom":"Arbre aux mouchoirs","info":{"genre":"Davidia","espece":"involucrata"},"id":"e10750d13ea80405dd0b8319b9783307bc8fe38a","geo":{"type":"Point","coordinates":[2.340150114284763,48.82165848825695]},"meta":{"arrondissement":"PARIS 14E ARRDT","adresse":"PARC MONTSOURIS / 28 BOULEVARD JOURDAN"}},{"taille":{"h":7,"p":40},"nom":"Arbre aux mouchoirs","info":{"genre":"Davidia","espece":"involucrata var. vilmoriniana","stade_developpement":"Jeune (arbre)"},"id":"f6377f86df1e5b238857b2bd713f9804de6858a0","geo":{"type":"Point","coordinates":[2.3039874511069582,48.89193038962247]},"meta":{"arrondissement":"PARIS 17E ARRDT","adresse":"JARDIN CLAIRE MOTTE"}},{"taille":{"h":15,"p":120},"nom":"Arbre aux mouchoirs","info":{"genre":"Davidia","espece":"involucrata","stade_developpement":"Adulte"},"id":"fcfa22a2f9b4318c63317c3795b07764e46e8a84","geo":{"type":"Point","coordinates":[2.248878745722906,48.87324846283381]},"meta":{"arrondissement":"BOIS DE BOULOGNE","adresse":"PARC DE BAGATELLE - ALLEE DE LONGCHAMP / ROUTE DE SEVRES A NEUILLY"}},{"taille":{"h":5,"p":20},"nom":"Arbre aux mouchoirs","info":{"genre":"Davidia","espece":"involucrata var. vilmoriniana","stade_developpement":"Jeune (arbre)"},"id":"fdab3959f0e57939198c6841b7663c69a7e9889c","geo":{"type":"Point","coordinates":[2.303897880395005,48.89196550930007]},"meta":{"arrondissement":"PARIS 17E ARRDT","adresse":"JARDIN CLAIRE MOTTE"}},{"taille":{"h":7,"p":55},"nom":"Arbre aux mouchoirs","info":{"genre":"Davidia","espece":"involucrata var. vilmoriniana","stade_developpement":"Jeune (arbre)Adulte"},"id":"8d2f038a7a63172068033b28d4564fb2c2826686","geo":{"type":"Point","coordinates":[2.350026118439478,48.906756799196515]},"meta":{"arrondissement":"SEINE-SAINT-DENIS","adresse":"CIMETIERE DE SAINT-OUEN NOUV / DIV 10"}},{"taille":{"h":8,"p":45},"nom":"Arbre aux mouchoirs","info":{"genre":"Davidia","espece":"involucrata var. vilmoriniana","stade_developpement":"Jeune (arbre)Adulte"},"id":"6ff5cd88f140ba7f90eb91ae3b803a3b9fd50757","geo":{"type":"Point","coordinates":[2.3039408196143683,48.89193148555026]},"meta":{"arrondissement":"PARIS 17E ARRDT","adresse":"JARDIN CLAIRE MOTTE"}},{"taille":{"h":3,"p":0},"nom":"Arbre aux mouchoirs","info":{"genre":"Davidia","espece":"involucrata var. vilmoriniana"},"id":"d1efe4d30fcc9509888d0f3d56ed3b5f4af886d6","geo":{"type":"Point","coordinates":[2.362978723463727,48.82021790139135]},"meta":{"arrondissement":"PARIS 13E ARRDT","adresse":"SQUARE SAMUEL BECKETT / 47 RUE GANDON"}},{"taille":{"h":4,"p":30},"nom":"Arbre aux mouchoirs","info":{"genre":"Davidia","espece":"involucrata","stade_developpement":"Jeune (arbre)Adulte"},"id":"0217688efd378f72d5ca474da523c1eeb1226d17","geo":{"type":"Point","coordinates":[2.297863218151713,48.828221606357175]},"meta":{"arrondissement":"PARIS 15E ARRDT","adresse":"SQUARE DU DOCTEUR CALMETTE / 2 RUE JEAN SICARD"}},{"taille":{"h":3,"p":20},"nom":"Arbre aux mouchoirs","info":{"genre":"Davidia","espece":"involucrata"},"id":"3efcb56685f6dfefc6d2b0ebb88e2f627665f1b6","geo":{"type":"Point","coordinates":[2.308934864403219,48.8800197626126]},"meta":{"arrondissement":"PARIS 8E ARRDT","adresse":"PARC MONCEAU"}},{"taille":{"h":4,"p":35},"nom":"Arbre aux mouchoirs","info":{"genre":"Davidia","espece":"involucrata var. vilmoriniana","stade_developpement":"Jeune (arbre)"},"id":"2174b9fb884e337dc2e36749b66cba26953a7515","geo":{"type":"Point","coordinates":[2.323014713173616,48.82229896537985]},"meta":{"arrondissement":"PARIS 14E ARRDT","adresse":"SQUARE DU SERMENT DE KOUFRA"}},{"taille":{"h":2,"p":20},"nom":"Arbre aux mouchoirs","info":{"genre":"Davidia","espece":"involucrata","stade_developpement":"Jeune (arbre)Adulte"},"id":"83c04a7b90936ee5839819cdf406f79f420af3c3","geo":{"type":"Point","coordinates":[2.297959853088863,48.84204945171356]},"meta":{"arrondissement":"PARIS 15E ARRDT","adresse":"SQUARE SAINT LAMBERT / 2 RUE JEAN FORMIGE"}},{"taille":{"h":8,"p":48},"nom":"Arbre aux mouchoirs","info":{"genre":"Davidia","espece":"involucrata var. vilmoriniana","stade_developpement":"Jeune (arbre)"},"id":"36409944f8ad9367eddb214727d6149978cd06ab","geo":{"type":"Point","coordinates":[2.3039537890552992,48.89195909833191]},"meta":{"arrondissement":"PARIS 17E ARRDT","adresse":"JARDIN CLAIRE MOTTE"}},{"taille":{"h":6,"p":26},"nom":"Arbre aux mouchoirs","info":{"genre":"Davidia","espece":"involucrata var. vilmoriniana","stade_developpement":"Jeune (arbre)"},"id":"47fc30a55769649c607565d4b2817cda1d20e953","geo":{"type":"Point","coordinates":[2.3040374708131433,48.89193497912915]},"meta":{"arrondissement":"PARIS 17E ARRDT","adresse":"JARDIN CLAIRE MOTTE"}},{"taille":{"h":2,"p":20},"nom":"Arbre aux mouchoirs","info":{"genre":"Davidia","espece":"involucrata","stade_developpement":"Jeune (arbre)"},"id":"35cfb07606074ea71e780338f6d5187161f7a06c","geo":{"type":"Point","coordinates":[2.336076078295306,48.823838636079564]},"meta":{"arrondissement":"PARIS 14E ARRDT","adresse":"PARC MONTSOURIS / 28 BOULEVARD JOURDAN"}}]