[{"taille":{"h":4,"p":23},"nom":"Arbre à Gutta-Percha","info":{"genre":"Eucommia","espece":"ulmoides","stade_developpement":"Jeune (arbre)"},"id":"a541a0cd5a889029145314a38b7af5a04e7d1fd5","geo":{"type":"Point","coordinates":[2.287783966190458,48.87343393615334]},"meta":{"arrondissement":"PARIS 16E ARRDT","adresse":"JARDIN DE L AVENUE FOCH / 10 AVENUE FOCH"}},{"taille":{"h":14,"p":130},"nom":"Arbre à Gutta-Percha","info":{"genre":"Eucommia","espece":"ulmoides","stade_developpement":"Adulte"},"id":"e1062e1e4447a7268531961f227f24ff843e05e5","geo":{"type":"Point","coordinates":[2.395740784517371,48.857803908765824]},"meta":{"arrondissement":"PARIS 20E ARRDT","adresse":"CIMETIERE DU PERE LACHAISE / DIV 75"}},{"taille":{"h":7,"p":56},"nom":"Arbre à Gutta-Percha","info":{"genre":"Eucommia","espece":"ulmoides","stade_developpement":"Jeune (arbre)Adulte"},"id":"f05240a3447e5654de26de99297fd431be7b1038","geo":{"type":"Point","coordinates":[2.283855698063407,48.87215956422152]},"meta":{"arrondissement":"PARIS 16E ARRDT","adresse":"JARDIN DE L AVENUE FOCH / 10 AVENUE FOCH"}},{"taille":{"h":20,"p":158},"nom":"Arbre à Gutta-Percha","info":{"genre":"Eucommia","espece":"ulmoides","stade_developpement":"Adulte"},"id":"107222b411a7ac3deb70bbbfe2fbe87d3e8f9b99","geo":{"type":"Point","coordinates":[2.338101799519862,48.823849407026806]},"meta":{"arrondissement":"PARIS 14E ARRDT","adresse":"PARC MONTSOURIS / 28 BOULEVARD JOURDAN"}},{"taille":{"h":0,"p":0},"nom":"Arbre à Gutta-Percha","info":{"genre":"Eucommia","espece":"ulmoides"},"id":"6641b1598ea054ec6d2d25a61906f5ed4b9d4ccd","geo":{"type":"Point","coordinates":[2.4541823416340423,48.820948869425266]},"meta":{"arrondissement":"BOIS DE VINCENNES","adresse":"ARBORETUM DE L ECOLE DU BREUIL - ROUTE DE LA FERME / ROUTE DE LA PYRAMIDE"}},{"taille":{"h":0,"p":0},"nom":"Arbre à Gutta-Percha","info":{"genre":"Eucommia","espece":"ulmoides"},"id":"645a3f989e3d94776e560035b01b7591cb2c7dfc","geo":{"type":"Point","coordinates":[2.454244436760598,48.820896611587266]},"meta":{"arrondissement":"BOIS DE VINCENNES","adresse":"ARBORETUM DE L ECOLE DU BREUIL - ROUTE DE LA FERME / ROUTE DE LA PYRAMIDE"}},{"taille":{"h":15,"p":195},"nom":"Arbre à Gutta-Percha","info":{"genre":"Eucommia","espece":"ulmoides","stade_developpement":"Adulte"},"id":"1491fa593b2f833e93c9e683204e903591e9a011","geo":{"type":"Point","coordinates":[2.297245756057035,48.857772499834546]},"meta":{"arrondissement":"PARIS 7E ARRDT","adresse":"JARDIN DU CHAMP DE MARS ET PELOUSES DE L ECOLE MILITAIRE"}}]