[{"taille":{"h":8,"p":90},"nom":"Sterculier","info":{"genre":"Firmiana","espece":"simplex","stade_developpement":"Jeune (arbre)Adulte"},"id":"e9a1855a9d11ff7855d5d81760c0a5e64cd2965b","geo":{"type":"Point","coordinates":[2.458958071292974,48.82270821899822]},"meta":{"arrondissement":"BOIS DE VINCENNES","adresse":"ECOLE DU BREUIL / ROUTE DE LA FERME"}},{"taille":{"h":2,"p":15},"nom":"Sterculier","info":{"genre":"Firmiana","espece":"simplex"},"id":"f1895e8d8fba237f50cf2982ad70e724db5af0f6","geo":{"type":"Point","coordinates":[2.348542828282786,48.90083806972619]},"meta":{"arrondissement":"PARIS 18E ARRDT","adresse":"CENTRE SPORTIF DES POISSONIERS / 2 RUE JEAN COCTEAU"}},{"taille":{"h":6,"p":38},"nom":"Sterculier","info":{"genre":"Firmiana","espece":"simplex","stade_developpement":"Jeune (arbre)"},"id":"875cc674f3a960f02689750a30e0d7fd4b6e6e86","geo":{"type":"Point","coordinates":[2.311354349978144,48.86930969056381]},"meta":{"arrondissement":"PARIS 8E ARRDT","adresse":"JARDINS DES CHAMPS ELYSEES - SQUARE MARIGNY / 41 AVENUE GABRIEL"}},{"taille":{"h":5,"p":35},"nom":"Sterculier","info":{"genre":"Firmiana","espece":"simplex","stade_developpement":"Jeune (arbre)"},"id":"e4e8b88b9f08db89ae785d9c30279dddfa9f1ab7","geo":{"type":"Point","coordinates":[2.297315419653148,48.85735293678238]},"meta":{"arrondissement":"PARIS 7E ARRDT","adresse":"JARDIN DU CHAMP DE MARS ET PELOUSES DE L ECOLE MILITAIRE"}},{"taille":{"h":5,"p":25},"nom":"Sterculier","info":{"genre":"Firmiana","espece":"simplex","stade_developpement":"Jeune (arbre)"},"id":"4439c41191d327d66817a49687915e30af5b7acf","geo":{"type":"Point","coordinates":[2.365200479297515,48.88625780371385]},"meta":{"arrondissement":"PARIS 18E ARRDT","adresse":"JARDIN D EOLE / 18 BIS RUE DU DEPARTEMENT"}},{"taille":{"h":3,"p":15},"nom":"Sterculier","info":{"genre":"Firmiana","espece":"simplex","stade_developpement":"Jeune (arbre)Adulte"},"id":"068bf618d11ec34238f15754a395ddb5b037bcfe","geo":{"type":"Point","coordinates":[2.339842439888073,48.82350184058361]},"meta":{"arrondissement":"PARIS 14E ARRDT","adresse":"PARC MONTSOURIS / 28 BOULEVARD JOURDAN"}},{"taille":{"h":3,"p":15},"nom":"Sterculier","info":{"genre":"Firmiana","espece":"simplex"},"id":"b0a86dbc81f36692336cfb5bff8eecaa8e0e060c","geo":{"type":"Point","coordinates":[2.340372306087552,48.900672444894134]},"meta":{"arrondissement":"PARIS 18E ARRDT","adresse":"CENTRE SPORTIF BERTRAND DAUVIN / 12 RUE RENE BINET"}},{"taille":{"h":15,"p":90},"nom":"Sterculier","info":{"genre":"Firmiana","espece":"simplex","stade_developpement":"Jeune (arbre)"},"id":"b4395aaca139710c31e2ea373c63222fb5fb9c25","geo":{"type":"Point","coordinates":[2.444454492488762,48.83951309851832]},"meta":{"arrondissement":"BOIS DE VINCENNES","adresse":"PARC FLORAL DE PARIS / ROUTE DE LA PYRAMIDE"}},{"taille":{"h":0,"p":0},"nom":"Sterculier","info":{"genre":"Firmiana","espece":"simplex"},"id":"12829b851f8b1d67173f483481f26fd78ff6786d","geo":{"type":"Point","coordinates":[2.369537721006989,48.82535686993109]},"meta":{"arrondissement":"PARIS 13E ARRDT","adresse":"SQUARE DES CHAMAILLARDS / 53 RUE DU CHATEAU DES RENTIERS"}},{"taille":{"h":9,"p":97},"nom":"Sterculier","info":{"genre":"Firmiana","espece":"simplex","stade_developpement":"Adulte"},"id":"773d917f167652eb94a24b6571dab0cc3e84799c","geo":{"type":"Point","coordinates":[2.269689656704185,48.8449306514661]},"meta":{"arrondissement":"PARIS 16E ARRDT","adresse":"JARDIN DE L HOPITAL SAINTE PERINE / 41 RUE MIRABEAU"}},{"taille":{"h":7,"p":20},"nom":"Sterculier","info":{"genre":"Firmiana","espece":"simplex","stade_developpement":"Jeune (arbre)"},"id":"4def51c32f9dc2cf8fabc920b46c1f037b842a37","geo":{"type":"Point","coordinates":[2.329651798418939,48.890613770257275]},"meta":{"arrondissement":"PARIS 18E ARRDT","adresse":"ECOLE MATERNELLE / 5 RUE CARPEAUX"}},{"taille":{"h":10,"p":103},"nom":"Sterculier","info":{"genre":"Firmiana","espece":"simplex","stade_developpement":"Adulte"},"id":"c92b95bfbc6a1ce5daf34d89a71a77328e327ef2","geo":{"type":"Point","coordinates":[2.259741762267355,48.84141000636257]},"meta":{"arrondissement":"PARIS 16E ARRDT","adresse":"RUE CLAUDE LORRAIN"}},{"taille":{"h":6,"p":10},"nom":"Sterculier","info":{"genre":"Firmiana","espece":"simplex"},"id":"225ec61479bde40f740f8d1ddf4588fd09ad7412","geo":{"type":"Point","coordinates":[2.355574087259839,48.81721090475107]},"meta":{"arrondissement":"PARIS 13E ARRDT","adresse":"PARC KELLERMANN / 19 RUE DE LA POTERNE DES PEUPLIERS"}},{"taille":{"h":12,"p":133},"nom":"Sterculier","info":{"genre":"Firmiana","espece":"simplex","stade_developpement":"Adulte"},"id":"9a0209c4fc07368f13b0839e671c58ac010127ad","geo":{"type":"Point","coordinates":[2.253143007559326,48.84761141565212]},"meta":{"arrondissement":"PARIS 16E ARRDT","adresse":"JARDIN DES SERRES D AUTEUIL / 1 AVENUE GORDON BENNETT"}}]