[{"taille":{"h":5,"p":40},"nom":"Lilas des indes","info":{"genre":"Lagerstroemia","espece":"indica","stade_developpement":"Jeune (arbre)Adulte"},"id":"14f52ac8b721ede20090029e9958332f55b393d3","geo":{"type":"Point","coordinates":[2.355359957932395,48.82526254123013]},"meta":{"arrondissement":"PARIS 13E ARRDT","adresse":"RUE DAMESME"}},{"taille":{"h":5,"p":33},"nom":"Lilas des indes","info":{"genre":"Lagerstroemia","espece":"indica","stade_developpement":"Adulte"},"id":"730a32591451a63fb10901e768a7f16921fb003c","geo":{"type":"Point","coordinates":[2.356478431819073,48.86526058232091]},"meta":{"arrondissement":"PARIS 3E ARRDT","adresse":"RUE BAILLY"}},{"taille":{"h":0,"p":0},"info":{"genre":"Lagerstroemia","espece":"japonicum"},"id":"890e70efb0cbb0fa22b68150fe0ae1cae59de9b1","geo":{"type":"Point","coordinates":[2.3386986772636362,48.821132345904275]},"meta":{"arrondissement":"PARIS 14E ARRDT","adresse":"PARC MONTSOURIS / 28 BOULEVARD JOURDAN"}},{"taille":{"h":3,"p":20},"nom":"Lilas des indes","info":{"genre":"Lagerstroemia","espece":"indica","stade_developpement":"Jeune (arbre)"},"id":"f455d09f6325d711df7c66a3855dc08a16cd4c14","geo":{"type":"Point","coordinates":[2.307767599544944,48.82784204044486]},"meta":{"arrondissement":"PARIS 14E ARRDT","adresse":"ECOLE ELEMENTAIRE / 5 SQUARE ALAIN FOURNIER"}},{"taille":{"h":4,"p":25},"nom":"Lilas des indes","info":{"genre":"Lagerstroemia","espece":"indica","stade_developpement":"Adulte"},"id":"161b117a0a84c3326ddc8d1bd937fe941d4920b8","geo":{"type":"Point","coordinates":[2.304162155323815,48.85911270083957]},"meta":{"arrondissement":"PARIS 7E ARRDT","adresse":"PASSAGE LANDRIEU"}},{"taille":{"h":5,"p":25},"nom":"Lilas des indes","info":{"genre":"Lagerstroemia","espece":"indica","stade_developpement":"Jeune (arbre)"},"id":"ff7b1c9d208cf7241f461b9181d499ee4020e6ae","geo":{"type":"Point","coordinates":[2.387583905696801,48.835807024320054]},"meta":{"arrondissement":"PARIS 12E ARRDT","adresse":"ECOLE ELEMENTAIRE / 5 RUE GERTY ARCHIMEDE"}},{"taille":{"h":4,"p":30},"nom":"Lilas des indes","info":{"genre":"Lagerstroemia","espece":"indica"},"id":"42309f923b62be8ab67a2acd10392e7d43690201","geo":{"type":"Point","coordinates":[2.348232243978052,48.819434306082584]},"meta":{"arrondissement":"PARIS 13E ARRDT","adresse":"JARDIN JEAN-CLAUDE NICOLAS FORESTIER"}},{"taille":{"h":5,"p":20},"nom":"Lilas des indes","info":{"genre":"Lagerstroemia","espece":"indica"},"id":"2ed3ede00699445837b6d818a1c1067331bb7f9e","geo":{"type":"Point","coordinates":[2.285991944762241,48.84889830938395]},"meta":{"arrondissement":"PARIS 15E ARRDT","adresse":"SQUARE PABLO CASALS / 41 RUE EMERIAU"}},{"taille":{"h":3,"p":30},"nom":"Lilas des indes","info":{"genre":"Lagerstroemia","espece":"indica","stade_developpement":"Jeune (arbre)"},"id":"a387c25f65aaf4127865455b842d1ffae5633d68","geo":{"type":"Point","coordinates":[2.367542476651642,48.81309266196623]},"meta":{"arrondissement":"VAL-DE-MARNE","adresse":"CIMETIERE D''IVRY / DIV 43"}},{"taille":{"h":4,"p":40},"nom":"Lilas des indes","info":{"genre":"Lagerstroemia","espece":"indica","stade_developpement":"Jeune (arbre)Adulte"},"id":"3bec22d11dc5e921039fd2a1c5e3a58742b34cff","geo":{"type":"Point","coordinates":[2.359542211726718,48.8229107214068]},"meta":{"arrondissement":"PARIS 13E ARRDT","adresse":"VILLA DELODER"}},{"taille":{"h":6,"p":35},"nom":"Lilas des indes","info":{"genre":"Lagerstroemia","espece":"indica","stade_developpement":"Jeune (arbre)Adulte"},"id":"e7bf5a0a02020b623f78ff27ede6f4c6411f8b33","geo":{"type":"Point","coordinates":[2.284531434538462,48.853479479385555]},"meta":{"arrondissement":"PARIS 15E ARRDT","adresse":"ALLEE DES CYGNES"}},{"taille":{"h":3,"p":18},"nom":"Lilas des indes","info":{"genre":"Lagerstroemia","espece":"indica","stade_developpement":"Jeune (arbre)"},"id":"3b5a0db9fe7b4dc8f8aad704a11400947de574ba","geo":{"type":"Point","coordinates":[2.287629708186798,48.87986993598043]},"meta":{"arrondissement":"PARIS 17E ARRDT","adresse":"PROMENADE PEREIRE TERNES MAILLOT / 87 BIS AVENUE DES TERNES"}},{"taille":{"h":3,"p":20},"nom":"Lilas des indes","info":{"genre":"Lagerstroemia","espece":"indica","stade_developpement":"Jeune (arbre)"},"id":"766596bfe5589d1d6d8eb43d84adc4bd4e6a2ee9","geo":{"type":"Point","coordinates":[2.254263069436731,48.83830233823906]},"meta":{"arrondissement":"PARIS 16E ARRDT","adresse":"JARDINIERES DE LA PORTE DE SAINT CLOUD / 6 AVENUE DE LA PORTE DE SAINT CLOUD"}},{"taille":{"h":5,"p":50},"nom":"Lilas des indes","info":{"genre":"Lagerstroemia","espece":"indica","stade_developpement":"Adulte"},"id":"9e4405b1b14992399f42c22e8dc493094eb4bb10","geo":{"type":"Point","coordinates":[2.347010910587399,48.82232790155567]},"meta":{"arrondissement":"PARIS 13E ARRDT","adresse":"PLACE DE RUNGIS"}},{"taille":{"h":2,"p":10},"nom":"Lilas des indes","info":{"genre":"Lagerstroemia","espece":"indica","stade_developpement":"Jeune (arbre)","variete":"''Rosea Nova''"},"id":"d61ba3fa3dc43be973159b1970f5b0002779bf77","geo":{"type":"Point","coordinates":[2.331959505719492,48.87663285044275]},"meta":{"arrondissement":"PARIS 9E ARRDT","adresse":"SQUARE D''ESTIENNE D''ORVES"}},{"taille":{"h":5,"p":40},"nom":"Lilas des indes","info":{"genre":"Lagerstroemia","espece":"indica","stade_developpement":"Jeune (arbre)"},"id":"469b2be2798487466017de4ab96f58012b87cb38","geo":{"type":"Point","coordinates":[2.382894592615785,48.89355269111494]},"meta":{"arrondissement":"PARIS 19E ARRDT","adresse":"PLACE DE L ARGONNE"}},{"taille":{"h":4,"p":30},"nom":"Lilas des indes","info":{"genre":"Lagerstroemia","espece":"indica","stade_developpement":"Jeune (arbre)Adulte"},"id":"568af1c94cba6caed11cc5da209cb5d45f7f108f","geo":{"type":"Point","coordinates":[2.358469925574569,48.86744430153586]},"meta":{"arrondissement":"PARIS 3E ARRDT","adresse":"RUE NOTRE DAME DE NAZARETH"}},{"taille":{"h":3,"p":40},"nom":"Lilas des indes","info":{"genre":"Lagerstroemia","espece":"indica","stade_developpement":"Jeune (arbre)Adulte"},"id":"085e4da872b3bdc93f611f1d4ae5fcc8abce2a09","geo":{"type":"Point","coordinates":[2.359811407342698,48.8359802948906]},"meta":{"arrondissement":"PARIS 13E ARRDT","adresse":"PLACE LOUIS ARMSTRONG"}},{"taille":{"h":5,"p":35},"nom":"Lilas des indes","info":{"genre":"Lagerstroemia","espece":"indica","stade_developpement":"Jeune (arbre)"},"id":"3ae5118081cbf287e4248e281d6b6803ecb58966","geo":{"type":"Point","coordinates":[2.349924742533195,48.90676107835627]},"meta":{"arrondissement":"SEINE-SAINT-DENIS","adresse":"CIMETIERE DE SAINT-OUEN NOUV / DIV 10"}},{"taille":{"h":1,"p":10},"nom":"Lilas des indes","info":{"genre":"Lagerstroemia","espece":"indica","stade_developpement":"Jeune (arbre)"},"id":"6cab5b221ba620760f5f9b601b57a49c0b5dc60f","geo":{"type":"Point","coordinates":[2.348972048949267,48.910181660227494]},"meta":{"arrondissement":"SEINE-SAINT-DENIS","adresse":"CIMETIERE DE SAINT-OUEN NOUV / DIV 28"}},{"taille":{"h":5,"p":35},"nom":"Lilas des indes","info":{"genre":"Lagerstroemia","espece":"indica","stade_developpement":"Jeune (arbre)"},"id":"e44d28b84112aadb366bb1207ebd4680bd0e9cbe","geo":{"type":"Point","coordinates":[2.31952569616961,48.8320330782843]},"meta":{"arrondissement":"PARIS 14E ARRDT","adresse":"JARDIN ALBERTO GIACOMETTI / 1 RUE DES THERMOPYLES"}},{"taille":{"h":0,"p":20},"nom":"Lilas des indes","info":{"genre":"Lagerstroemia","espece":"indica","variete":"''Rosea Nova''"},"id":"2d0adeb00ea685f01edb2a44742eff6913f44272","geo":{"type":"Point","coordinates":[2.349800127691318,48.82873595760596]},"meta":{"arrondissement":"PARIS 13E ARRDT","adresse":"JARDIN BRASSAI / 2 RUE EUGENE ATGET"}},{"taille":{"h":3,"p":20},"nom":"Lilas des indes","info":{"genre":"Lagerstroemia","espece":"indica","stade_developpement":"Jeune (arbre)"},"id":"20cae20b6dea80afc093becfb4afed0d88ede473","geo":{"type":"Point","coordinates":[2.286564840692154,48.879295851144356]},"meta":{"arrondissement":"PARIS 17E ARRDT","adresse":"PROMENADE PEREIRE TERNES MAILLOT / 87 BIS AVENUE DES TERNES"}},{"taille":{"h":5,"p":20},"nom":"Lilas des indes","info":{"genre":"Lagerstroemia","espece":"indica"},"id":"ecb302fd35368c576830d464ecc205ae83e4aaa9","geo":{"type":"Point","coordinates":[2.279169660261964,48.83838932262927]},"meta":{"arrondissement":"PARIS 15E ARRDT","adresse":"MAIL DE LA RUE MODIGLIANI / 3 RUE MODIGLIANI"}},{"taille":{"h":3,"p":25},"nom":"Lilas des indes","info":{"genre":"Lagerstroemia","espece":"indica","stade_developpement":"Jeune (arbre)Adulte"},"id":"dcc672e4aab953a0755fb859447a723687849a0d","geo":{"type":"Point","coordinates":[2.366825743105663,48.87262125230819]},"meta":{"arrondissement":"PARIS 10E ARRDT","adresse":"RUE BICHAT"}},{"taille":{"h":3,"p":30},"nom":"Lilas des indes","info":{"genre":"Lagerstroemia","espece":"indica","stade_developpement":"Jeune (arbre)"},"id":"98a3bd298a50b6643859fe92c62697df6cf9e9c5","geo":{"type":"Point","coordinates":[2.254787671592437,48.83812811584113]},"meta":{"arrondissement":"PARIS 16E ARRDT","adresse":"JARDINS DE LA PORTE DE SAINT CLOUD / AVENUE EDOUARD VAILLANT"}},{"taille":{"h":3,"p":10},"nom":"Lilas des indes","info":{"genre":"Lagerstroemia","espece":"indica"},"id":"94ebc14da0e1abd847ea8374edfe55b0639405e5","geo":{"type":"Point","coordinates":[2.3831569792605283,48.82756045139925]},"meta":{"arrondissement":"PARIS 13E ARRDT","adresse":"JARDIN BIOPARK / 11 RUE WATT"}},{"taille":{"h":1,"p":10},"nom":"Lilas des indes","info":{"genre":"Lagerstroemia","espece":"indica","stade_developpement":"Jeune (arbre)"},"id":"58045e48e99cb643ba284025a46e448e8ed81efd","geo":{"type":"Point","coordinates":[2.255341248769744,48.8368353192335]},"meta":{"arrondissement":"PARIS 16E ARRDT","adresse":"JARDINS DE LA PORTE DE SAINT CLOUD / AVENUE EDOUARD VAILLANT"}},{"taille":{"h":0,"p":0},"nom":"Lilas des indes","info":{"genre":"Lagerstroemia","espece":"indica"},"id":"89ac647d70c15a4ebad8a8e9bebf6d9f45b6bcd1","geo":{"type":"Point","coordinates":[2.284495714417596,48.8385700197707]},"meta":{"arrondissement":"PARIS 15E ARRDT","adresse":"CIMETIERE DE VAUGIRARD / AVENUE DE GRENELLE / DIV 10"}},{"taille":{"h":3,"p":20},"nom":"Lilas des indes","info":{"genre":"Lagerstroemia","espece":"indica","stade_developpement":"Jeune (arbre)"},"id":"4c93c51edd47483a0bac1f786a4d5eac0da86cea","geo":{"type":"Point","coordinates":[2.308014874682203,48.82796127208778]},"meta":{"arrondissement":"PARIS 14E ARRDT","adresse":"ECOLE ELEMENTAIRE / 5 SQUARE ALAIN FOURNIER"}},{"taille":{"h":3,"p":20},"nom":"Lilas des indes","info":{"genre":"Lagerstroemia","espece":"indica","stade_developpement":"Jeune (arbre)"},"id":"5b98363023f02d16f3c7c427279cb63388e02fe8","geo":{"type":"Point","coordinates":[2.286199564931651,48.87910472258001]},"meta":{"arrondissement":"PARIS 17E ARRDT","adresse":"PROMENADE PEREIRE TERNES MAILLOT / 87 BIS AVENUE DES TERNES"}},{"taille":{"h":5,"p":20},"nom":"Lilas des indes","info":{"genre":"Lagerstroemia","espece":"indica"},"id":"4a9b2d1f3355339f1beb3f471f1be7b63bcc0a58","geo":{"type":"Point","coordinates":[2.396521615192935,48.879416175145266]},"meta":{"arrondissement":"PARIS 19E ARRDT","adresse":"RUE DES LILAS"}},{"taille":{"h":4,"p":20},"nom":"Lilas des indes","info":{"genre":"Lagerstroemia","espece":"indica","stade_developpement":"Jeune (arbre)"},"id":"9c2ac77fbfa2faf7b484c1591708fe57e4d75daf","geo":{"type":"Point","coordinates":[2.284811910917051,48.855983677387975]},"meta":{"arrondissement":"PARIS 16E ARRDT","adresse":"PARC DE PASSY / 10 RUE D ANKARA"}},{"taille":{"h":3,"p":20},"nom":"Lilas des indes","info":{"genre":"Lagerstroemia","espece":"indica","stade_developpement":"Jeune (arbre)"},"id":"c950300281ecc4e0be3b68afc0f8d0dcfb9033b8","geo":{"type":"Point","coordinates":[2.269542459120869,48.84576809012878]},"meta":{"arrondissement":"PARIS 16E ARRDT","adresse":"JARDIN DE L HOPITAL SAINTE PERINE / 41 RUE MIRABEAU"}},{"taille":{"h":1,"p":10},"nom":"Lilas des indes","info":{"genre":"Lagerstroemia","espece":"indica"},"id":"d153624a33be5def987f18fb7dd229c8ff5275b0","geo":{"type":"Point","coordinates":[2.421292606066975,48.90836065803973]},"meta":{"arrondissement":"SEINE-SAINT-DENIS","adresse":"PARC DES SPORTS INTERDEPARTEMENTAL DE BOBIGNY / 40 AVENUE DE LA DIVISION LECLERC - BOBIGNY"}},{"taille":{"h":4,"p":25},"nom":"Lilas des indes","info":{"genre":"Lagerstroemia","espece":"indica","stade_developpement":"Jeune (arbre)"},"id":"6aedee97e30916c9a63af4ffeef9910d9b82af05","geo":{"type":"Point","coordinates":[2.352453046379526,48.82021023591623]},"meta":{"arrondissement":"PARIS 13E ARRDT","adresse":"AVENUE CAFFIERI"}},{"taille":{"h":0,"p":133},"nom":"Lilas des indes","info":{"genre":"Lagerstroemia","espece":"indica"},"id":"2e50d140dcd250095023e3ab88dcb68432921c4f","geo":{"type":"Point","coordinates":[2.269382972016614,48.83149460995797]},"meta":{"arrondissement":"PARIS 15E ARRDT","adresse":"PARC OMNISPORT SUZANNE LENGLEN / 7 BOULEVARD DES FRERES VOISIN"}},{"taille":{"h":2,"p":0},"nom":"Lilas des indes","info":{"genre":"Lagerstroemia","espece":"indica"},"id":"cb1240640c9b8653532c524b4d37e74f2d761acb","geo":{"type":"Point","coordinates":[2.404372221452619,48.84665530242033]},"meta":{"arrondissement":"PARIS 12E ARRDT","adresse":"JARDIN DEBERGUE- RENDEZ VOUS / 30 RUE DU RENDEZ VOUS"}},{"taille":{"h":3,"p":30},"nom":"Lilas des indes","info":{"genre":"Lagerstroemia","espece":"indica","stade_developpement":"Jeune (arbre)Adulte"},"id":"dc2b20ff3b29407ab714f7b9a24dc98457153dfb","geo":{"type":"Point","coordinates":[2.396336312708556,48.84865777387208]},"meta":{"arrondissement":"PARIS 12E ARRDT","adresse":"JARDIN DE MARIANNE / 3 W PLACE DE LA NATION"}},{"taille":{"h":4,"p":30},"nom":"Lilas des indes","info":{"genre":"Lagerstroemia","espece":"indica"},"id":"c784d6375b7cee2b4c01142d4e08192b44568a52","geo":{"type":"Point","coordinates":[2.348421581821197,48.81916743020728]},"meta":{"arrondissement":"PARIS 13E ARRDT","adresse":"JARDIN JEAN-CLAUDE NICOLAS FORESTIER"}},{"taille":{"h":3,"p":30},"nom":"Lilas des indes","info":{"genre":"Lagerstroemia","espece":"indica","stade_developpement":"Jeune (arbre)Adulte"},"id":"12290129e21fd6810583dad52b3e26ed868c0d93","geo":{"type":"Point","coordinates":[2.268013411583654,48.849177660829056]},"meta":{"arrondissement":"PARIS 16E ARRDT","adresse":"RUE DES PERCHAMPS"}},{"taille":{"h":3,"p":15},"nom":"Lilas des indes","info":{"genre":"Lagerstroemia","espece":"indica"},"id":"4da0e79d4fbc7da62d96fcbdf6b160cc137a0d83","geo":{"type":"Point","coordinates":[2.254441963933001,48.83794878451197]},"meta":{"arrondissement":"PARIS 16E ARRDT","adresse":"JARDINS DE LA PORTE DE SAINT CLOUD / AVENUE EDOUARD VAILLANT"}},{"taille":{"h":4,"p":32},"nom":"Lilas des indes","info":{"genre":"Lagerstroemia","espece":"indica","stade_developpement":"Jeune (arbre)Adulte"},"id":"21d32b3ba1c4fbab29b0939a95ba1198660997a5","geo":{"type":"Point","coordinates":[2.2527744182517813,48.845931377023106]},"meta":{"arrondissement":"PARIS 16E ARRDT","adresse":"JARDIN DES SERRES D AUTEUIL / 1 AVENUE GORDON BENNETT"}},{"taille":{"h":3,"p":20},"nom":"Lilas des indes","info":{"genre":"Lagerstroemia","espece":"indica","stade_developpement":"Jeune (arbre)"},"id":"b87d83cb14cca2f876f744b90f3346457835a210","geo":{"type":"Point","coordinates":[2.286940888654705,48.879501099375226]},"meta":{"arrondissement":"PARIS 17E ARRDT","adresse":"PROMENADE PEREIRE TERNES MAILLOT / 87 BIS AVENUE DES TERNES"}},{"taille":{"h":5,"p":41},"nom":"Lilas des indes","info":{"genre":"Lagerstroemia","espece":"indica","stade_developpement":"Jeune (arbre)Adulte"},"id":"ab0fcbf4d4ac107faf75c72a3a760a0a5c543360","geo":{"type":"Point","coordinates":[2.279374859855916,48.85996783873577]},"meta":{"arrondissement":"PARIS 16E ARRDT","adresse":"RUE VITAL"}},{"taille":{"h":4,"p":20},"nom":"Lilas des indes","info":{"genre":"Lagerstroemia","espece":"indica","stade_developpement":"Jeune (arbre)"},"id":"4a9cbd340306bd1ee8ce948249fa34679c9e6a9d","geo":{"type":"Point","coordinates":[2.287518648781801,48.879622631440846]},"meta":{"arrondissement":"PARIS 17E ARRDT","adresse":"PROMENADE PEREIRE TERNES MAILLOT / 87 BIS AVENUE DES TERNES"}},{"taille":{"h":5,"p":20},"nom":"Lilas des indes","info":{"genre":"Lagerstroemia","espece":"indica"},"id":"5b1add1155ec30423418b8724b69b92838c3b7e0","geo":{"type":"Point","coordinates":[2.320508301368794,48.87109298227284]},"meta":{"arrondissement":"PARIS 8E ARRDT","adresse":"SURENE (18) ELEM (18)"}},{"taille":{"h":4,"p":29},"nom":"Lilas des indes","info":{"genre":"Lagerstroemia","espece":"indica","stade_developpement":"Jeune (arbre)Adulte"},"id":"08b192147e5938d4545a241552b10501de055487","geo":{"type":"Point","coordinates":[2.359942280625336,48.867241090843855]},"meta":{"arrondissement":"PARIS 3E ARRDT","adresse":"RUE NOTRE DAME DE NAZARETH"}},{"taille":{"h":2,"p":11},"nom":"Lilas des indes","info":{"genre":"Lagerstroemia","espece":"indica","stade_developpement":"Jeune (arbre)"},"id":"152e9de3805ec43d54a7b69123092e61f3b2133a","geo":{"type":"Point","coordinates":[2.2792305707559413,48.87183888625551]},"meta":{"arrondissement":"PARIS 16E ARRDT","adresse":"JARDIN DE L AVENUE FOCH / 10 AVENUE FOCH"}},{"taille":{"h":3,"p":20},"nom":"Lilas des indes","info":{"genre":"Lagerstroemia","espece":"indica","stade_developpement":"Jeune (arbre)"},"id":"d8d84b8a2cfc81160d0540c4e427bc3bf698eb50","geo":{"type":"Point","coordinates":[2.286701110453187,48.8791785169641]},"meta":{"arrondissement":"PARIS 17E ARRDT","adresse":"PROMENADE PEREIRE TERNES MAILLOT / 87 BIS AVENUE DES TERNES"}},{"taille":{"h":3,"p":20},"nom":"Lilas des indes","info":{"genre":"Lagerstroemia","espece":"indica","stade_developpement":"Jeune (arbre)"},"id":"27134e4abebe7be46bf47570422081910a1b0f0b","geo":{"type":"Point","coordinates":[2.286136341547459,48.87907263488908]},"meta":{"arrondissement":"PARIS 17E ARRDT","adresse":"PROMENADE PEREIRE TERNES MAILLOT / 87 BIS AVENUE DES TERNES"}},{"taille":{"h":5,"p":20},"nom":"Lilas des indes","info":{"genre":"Lagerstroemia","espece":"indica"},"id":"130f4ea3d12c8e58d1615af88629e1695eee70e2","geo":{"type":"Point","coordinates":[2.280060090018862,48.85707620532067]},"meta":{"arrondissement":"PARIS 16E ARRDT","adresse":"RUE JEAN BOLOGNE"}},{"taille":{"h":2,"p":3},"nom":"Lilas des indes","info":{"genre":"Lagerstroemia","espece":"indica","stade_developpement":"Jeune (arbre)"},"id":"4dd71879d7dbd53bbc869be9dcd43f06246c85cf","geo":{"type":"Point","coordinates":[2.343268403919592,48.884769604598716]},"meta":{"arrondissement":"PARIS 18E ARRDT","adresse":"SQUARE LOUISE MICHEL / 6 PLACE SAINT PIERRE"}},{"taille":{"h":0,"p":10},"nom":"Lilas des indes","info":{"genre":"Lagerstroemia","espece":"indica","stade_developpement":"Jeune (arbre)"},"id":"e145a76cd869c784878221ca7b6853913284710c","geo":{"type":"Point","coordinates":[2.41263362136893,48.872688246827245]},"meta":{"arrondissement":"PARIS 20E ARRDT","adresse":"SQUARE DE LA RUE LEON FRAPIE / 7 RUE DE NOISY LE SEC"}},{"taille":{"h":0,"p":0},"nom":"Lilas des indes","info":{"genre":"Lagerstroemia","espece":"indica","stade_developpement":"Jeune (arbre)"},"id":"bbc1e6a817ef92dd49d47fa18c0b6d62819f8e17","geo":{"type":"Point","coordinates":[2.3645498922155372,48.8220280403759]},"meta":{"arrondissement":"PARIS 13E ARRDT","adresse":"JARDIN DE LA DALLE D IVRY / 28 AVENUE DE CHOISY"}},{"taille":{"h":3,"p":20},"nom":"Lilas des indes","info":{"genre":"Lagerstroemia","espece":"indica","stade_developpement":"Jeune (arbre)"},"id":"4698642d6f36467b74da3fda49a4f72807890ac8","geo":{"type":"Point","coordinates":[2.30796924448637,48.82793948592611]},"meta":{"arrondissement":"PARIS 14E ARRDT","adresse":"ECOLE ELEMENTAIRE / 5 SQUARE ALAIN FOURNIER"}},{"taille":{"h":0,"p":0},"nom":"Lilas des indes","info":{"genre":"Lagerstroemia","espece":"indica"},"id":"702c908a441c5a3320b4f4e098278904ad2c318e","geo":{"type":"Point","coordinates":[2.2839014680019742,48.838914511849346]},"meta":{"arrondissement":"PARIS 15E ARRDT","adresse":"CIMETIERE DE VAUGIRARD / AVENUE DE GRENELLE / DIV 18"}},{"taille":{"h":5,"p":25},"nom":"Lilas des indes","info":{"genre":"Lagerstroemia","espece":"indica","stade_developpement":"Jeune (arbre)Adulte","variete":"''Desmon''"},"id":"5e3bf15a4f4ebc24bd32ee3e5307672495dcf82a","geo":{"type":"Point","coordinates":[2.335965458283898,48.89711788220804]},"meta":{"arrondissement":"PARIS 18E ARRDT","adresse":"SQUARE MARIA VERONE"}},{"taille":{"h":5,"p":25},"nom":"Lilas des indes","info":{"genre":"Lagerstroemia","espece":"indica","stade_developpement":"Jeune (arbre)"},"id":"5cfd1f05f271ed0d57c64e34067c6bc080043ac3","geo":{"type":"Point","coordinates":[2.289716561255768,48.83654339710735]},"meta":{"arrondissement":"PARIS 15E ARRDT","adresse":"RUE DOMINIQUE PADO"}},{"taille":{"h":2,"p":15},"nom":"Lilas des indes","info":{"genre":"Lagerstroemia","espece":"indica","stade_developpement":"Jeune (arbre)"},"id":"4f88353ad6862b98abe5d5ac26ccbed2ec824795","geo":{"type":"Point","coordinates":[2.391475036187717,48.85200690707863]},"meta":{"arrondissement":"PARIS 11E ARRDT","adresse":"SQUARE DES JARDINIERS / 4 PASSAGE DUMAS"}},{"taille":{"h":5,"p":25},"nom":"Lilas des indes","info":{"genre":"Lagerstroemia","espece":"indica","stade_developpement":"Jeune (arbre)Adulte"},"id":"60bda12fc912f9676cd4fc8f37664a3482af3a51","geo":{"type":"Point","coordinates":[2.349724632452455,48.89401864980644]},"meta":{"arrondissement":"PARIS 18E ARRDT","adresse":"JARDIN DE LA RUE DU SIMPLON / 36 RUE DU SIMPLON"}},{"taille":{"h":3,"p":20},"nom":"Lilas des indes","info":{"genre":"Lagerstroemia","espece":"indica","stade_developpement":"Jeune (arbre)"},"id":"7f9fd9eff746f9ba4bef69a4586e9aea91a15ba8","geo":{"type":"Point","coordinates":[2.368634983660193,48.81418181652211]},"meta":{"arrondissement":"VAL-DE-MARNE","adresse":"CIMETIERE D''IVRY / DIV 40"}},{"taille":{"h":5,"p":20},"nom":"Lilas des indes","info":{"genre":"Lagerstroemia","espece":"indica"},"id":"bc28bedce1dfbd78aa95c799728ca5d08b970faa","geo":{"type":"Point","coordinates":[2.394161983855587,48.8787610661164]},"meta":{"arrondissement":"PARIS 19E ARRDT","adresse":"RUE EUGENIE COTTON"}},{"taille":{"h":5,"p":20},"nom":"Lilas des indes","info":{"genre":"Lagerstroemia","espece":"indica"},"id":"f5b08058aebc8aa3dbce516df570ebe8b0f195df","geo":{"type":"Point","coordinates":[2.344830229498057,48.86469831065618]},"meta":{"arrondissement":"PARIS 1ER ARRDT","adresse":"RUE JEAN JACQUES ROUSSEAU"}},{"taille":{"h":3,"p":20},"nom":"Lilas des indes","info":{"genre":"Lagerstroemia","espece":"indica","stade_developpement":"Jeune (arbre)","variete":"''Rosea Nova''"},"id":"53c83c42f2fd1a947a23d4021dc15bc9a61453a2","geo":{"type":"Point","coordinates":[2.308295265284767,48.890044576905694]},"meta":{"arrondissement":"PARIS 17E ARRDT","adresse":"ECOLE MATERNELLE / 24 RUE CHRISTINE DE PISAN"}},{"taille":{"h":3,"p":10},"nom":"Lilas des indes","info":{"genre":"Lagerstroemia","espece":"indica"},"id":"df7ff7c2d087dbbd7f0fe6cd371d8daef7c12756","geo":{"type":"Point","coordinates":[2.383142930572416,48.82742961027756]},"meta":{"arrondissement":"PARIS 13E ARRDT","adresse":"JARDIN BIOPARK / 11 RUE WATT"}},{"taille":{"h":3,"p":21},"nom":"Lilas des indes","info":{"genre":"Lagerstroemia","espece":"indica","stade_developpement":"Jeune (arbre)"},"id":"c0322ebaeb15f69ecea4769e800310a6c3a8711d","geo":{"type":"Point","coordinates":[2.290274790119332,48.86206185834707]},"meta":{"arrondissement":"PARIS 16E ARRDT","adresse":"JARDINS DU TROCADERO / 3 PLACE DE VARSOVIE"}},{"taille":{"h":0,"p":0},"nom":"Lilas des indes","info":{"genre":"Lagerstroemia","espece":"indica"},"id":"888b2d499d3e53aa5221fde8548d3814df7e72da","geo":{"type":"Point","coordinates":[2.284070520293601,48.83881363388765]},"meta":{"arrondissement":"PARIS 15E ARRDT","adresse":"CIMETIERE DE VAUGIRARD / AVENUE DE GRENELLE / DIV 15"}},{"taille":{"h":5,"p":40},"nom":"Lilas des indes","info":{"genre":"Lagerstroemia","espece":"indica","stade_developpement":"Jeune (arbre)"},"id":"eb86d606d7aecf5e62483ed5c253eb9a9091fbd8","geo":{"type":"Point","coordinates":[2.355288281390773,48.82584541808183]},"meta":{"arrondissement":"PARIS 13E ARRDT","adresse":"RUE DAMESME"}},{"taille":{"h":5,"p":20},"nom":"Lilas des indes","info":{"genre":"Lagerstroemia","espece":"indica","variete":"''Rosea Nova''"},"id":"e854820f4a841063735af75f94d8c58b288543b3","geo":{"type":"Point","coordinates":[2.3082718549521672,48.89002356826372]},"meta":{"arrondissement":"PARIS 17E ARRDT","adresse":"ECOLE MATERNELLE / 24 RUE CHRISTINE DE PISAN"}},{"taille":{"h":3,"p":20},"nom":"Lilas des indes","info":{"genre":"Lagerstroemia","espece":"indica","stade_developpement":"Jeune (arbre)Adulte"},"id":"aeeb654d67446eca11f8b611a20dce07d670b68c","geo":{"type":"Point","coordinates":[2.396241721905279,48.84870168866683]},"meta":{"arrondissement":"PARIS 12E ARRDT","adresse":"JARDIN DE MARIANNE / 3 W PLACE DE LA NATION"}},{"taille":{"h":1,"p":15},"nom":"Lilas des indes","info":{"genre":"Lagerstroemia","espece":"indica","stade_developpement":"Jeune (arbre)"},"id":"8feb86420ee40f2d744efa980e0e2176f2ef2dc1","geo":{"type":"Point","coordinates":[2.349136012515727,48.910246204202586]},"meta":{"arrondissement":"SEINE-SAINT-DENIS","adresse":"CIMETIERE DE SAINT-OUEN NOUV / DIV 28"}},{"taille":{"h":4,"p":30},"nom":"Lilas des indes","info":{"genre":"Lagerstroemia","espece":"indica","stade_developpement":"Jeune (arbre)Adulte"},"id":"b6bfec146f7e52ebd54a904f3a23461c0c5a9055","geo":{"type":"Point","coordinates":[2.2528126637018,48.84593550117031]},"meta":{"arrondissement":"PARIS 16E ARRDT","adresse":"JARDIN DES SERRES D AUTEUIL / 1 AVENUE GORDON BENNETT"}},{"taille":{"h":4,"p":35},"nom":"Lilas des indes","info":{"genre":"Lagerstroemia","espece":"indica","stade_developpement":"Jeune (arbre)Adulte"},"id":"654235d1bde8b42ae4527f35ffe1d389eb8eff95","geo":{"type":"Point","coordinates":[2.358617584912993,48.867422483449715]},"meta":{"arrondissement":"PARIS 3E ARRDT","adresse":"RUE NOTRE DAME DE NAZARETH"}},{"taille":{"h":5,"p":45},"nom":"Lilas des indes","info":{"genre":"Lagerstroemia","espece":"indica","stade_developpement":"Adulte"},"id":"c8998dc60f39cc56cb6f1cf58d6f18884f3f252f","geo":{"type":"Point","coordinates":[2.346842374636859,48.822288568621495]},"meta":{"arrondissement":"PARIS 13E ARRDT","adresse":"PLACE DE RUNGIS"}},{"taille":{"h":5,"p":20},"nom":"Lilas des indes","info":{"genre":"Lagerstroemia","espece":"indica","stade_developpement":"Jeune (arbre)"},"id":"45117d7ee583fd5c7e64d094865100579a4212c1","geo":{"type":"Point","coordinates":[2.28731793537,48.879514010720904]},"meta":{"arrondissement":"PARIS 17E ARRDT","adresse":"PROMENADE PEREIRE TERNES MAILLOT / 87 BIS AVENUE DES TERNES"}},{"taille":{"h":4,"p":35},"nom":"Lilas des indes","info":{"genre":"Lagerstroemia","espece":"indica","stade_developpement":"Jeune (arbre)"},"id":"f90b3deea4653200f487ad9a0a76ced8e1f14f22","geo":{"type":"Point","coordinates":[2.338729088015029,48.88910257322472]},"meta":{"arrondissement":"PARIS 18E ARRDT","adresse":"CIMETIERE ST VINCENT / AVENUE DE LA FONTAINE DU BUT / DIV 6"}},{"taille":{"h":4,"p":15},"nom":"Lilas des indes","info":{"genre":"Lagerstroemia","espece":"indica","stade_developpement":"Jeune (arbre)"},"id":"d9dd920add3a687a2835f4328320447bad13633f","geo":{"type":"Point","coordinates":[2.403281897252144,48.83755732987599]},"meta":{"arrondissement":"PARIS 12E ARRDT","adresse":"ECOLE ELEMENTAIRE B / 83 AVENUE DU GENERAL MICHEL BIZOT"}},{"taille":{"h":3,"p":10},"nom":"Lilas des indes","info":{"genre":"Lagerstroemia","espece":"indica"},"id":"9643ae42028a4e911ff2d73eb4e8ea09c8f70638","geo":{"type":"Point","coordinates":[2.383132176776594,48.82761088614683]},"meta":{"arrondissement":"PARIS 13E ARRDT","adresse":"JARDIN BIOPARK / 11 RUE WATT"}},{"taille":{"h":3,"p":10},"nom":"Lilas des indes","info":{"genre":"Lagerstroemia","espece":"indica"},"id":"833cc6073abd3e04887ba1485498935d8922a7bc","geo":{"type":"Point","coordinates":[2.383083040369534,48.82746379225824]},"meta":{"arrondissement":"PARIS 13E ARRDT","adresse":"JARDIN BIOPARK / 11 RUE WATT"}},{"taille":{"h":5,"p":20},"nom":"Lilas des indes","info":{"genre":"Lagerstroemia","espece":"indica"},"id":"46dc6a8ca8cf3e7afaeee0d95fa5a83740d108a4","geo":{"type":"Point","coordinates":[2.296510987865174,48.850703667446304]},"meta":{"arrondissement":"PARIS 15E ARRDT","adresse":"PLACE DU CARDINAL AMETTE"}},{"taille":{"h":2,"p":14},"nom":"Lilas des indes","info":{"genre":"Lagerstroemia","espece":"indica","stade_developpement":"Jeune (arbre)"},"id":"6da2ce85f9610bf6742de75bd15f7be625382e5b","geo":{"type":"Point","coordinates":[2.279296713787654,48.871747704116785]},"meta":{"arrondissement":"PARIS 16E ARRDT","adresse":"JARDIN DE L AVENUE FOCH / 10 AVENUE FOCH"}},{"taille":{"h":4,"p":30},"nom":"Lilas des indes","info":{"genre":"Lagerstroemia","espece":"indica"},"id":"400d5147f55b4c26faa00a6ad47540908e658863","geo":{"type":"Point","coordinates":[2.348166064282989,48.8188962679896]},"meta":{"arrondissement":"PARIS 13E ARRDT","adresse":"JARDIN JEAN-CLAUDE NICOLAS FORESTIER"}},{"taille":{"h":5,"p":25},"nom":"Lilas des indes","info":{"genre":"Lagerstroemia","espece":"indica"},"id":"9065b8f2f045e60e974aca5d9c3493076d4fe03e","geo":{"type":"Point","coordinates":[2.4193605189013923,48.906436717658806]},"meta":{"arrondissement":"SEINE-SAINT-DENIS","adresse":"CIMETIERE DE PANTIN / DIV 144"}},{"taille":{"h":2,"p":14},"nom":"Lilas des indes","info":{"genre":"Lagerstroemia","espece":"indica","stade_developpement":"Jeune (arbre)"},"id":"9a34de15b25e8ae2aa61d5da95bdd099a336fee2","geo":{"type":"Point","coordinates":[2.279095175243381,48.871779937157235]},"meta":{"arrondissement":"PARIS 16E ARRDT","adresse":"JARDIN DE L AVENUE FOCH / 10 AVENUE FOCH"}},{"taille":{"h":5,"p":20},"nom":"Lilas des indes","info":{"genre":"Lagerstroemia","espece":"indica"},"id":"88302e6b5bc624ded9c99667696985a6d2da805e","geo":{"type":"Point","coordinates":[2.331215298484221,48.891004681116215]},"meta":{"arrondissement":"PARIS 18E ARRDT","adresse":"PLACE JACQUES FROMENT"}},{"taille":{"h":5,"p":20},"nom":"Lilas des indes","info":{"genre":"Lagerstroemia","espece":"indica"},"id":"a092b089b08dc5e6fa067ca2be22120dd363bf32","geo":{"type":"Point","coordinates":[2.362108951826947,48.82004075460543]},"meta":{"arrondissement":"PARIS 13E ARRDT","adresse":"SQUARE SAMUEL BECKETT / 47 RUE GANDON"}},{"taille":{"h":3,"p":20},"nom":"Lilas des indes","info":{"genre":"Lagerstroemia","espece":"indica","stade_developpement":"Jeune (arbre)"},"id":"f194ca4a712d4cb258bc96d1e940ec6f890cf453","geo":{"type":"Point","coordinates":[2.285096734910271,48.878309582784546]},"meta":{"arrondissement":"PARIS 17E ARRDT","adresse":"JARDINIERES DE LA GARE ET PARKING MAILLOT / 224 BOULEVARD PEREIRE"}},{"taille":{"h":5,"p":20},"nom":"Lilas des indes","info":{"genre":"Lagerstroemia","espece":"indica"},"id":"a6384b3ff08ae748d5d264ef2f20c94956c1e970","geo":{"type":"Point","coordinates":[2.273609057009981,48.830111365288005]},"meta":{"arrondissement":"PARIS 15E ARRDT","adresse":"PARC OMNISPORT SUZANNE LENGLEN / 7 BOULEVARD DES FRERES VOISIN"}},{"taille":{"h":5,"p":30},"nom":"Lilas des indes","info":{"genre":"Lagerstroemia","espece":"indica","stade_developpement":"Jeune (arbre)"},"id":"8e5fe2c7e24652549ecdb758dba985af888ac310","geo":{"type":"Point","coordinates":[2.359964184525812,48.8569172734586]},"meta":{"arrondissement":"PARIS 4E ARRDT","adresse":"RUE DES ROSIERS"}},{"taille":{"h":3,"p":15},"nom":"Lilas des indes","info":{"genre":"Lagerstroemia","espece":"indica","stade_developpement":"Jeune (arbre)"},"id":"6f0d9263c289599cf9a6c1c74a857715faec0ddb","geo":{"type":"Point","coordinates":[2.298364234247157,48.83004852245623]},"meta":{"arrondissement":"PARIS 15E ARRDT","adresse":"SQUARE DES PERICHAUX / 123 BOULEVARD LEFEBVRE"}},{"taille":{"h":3,"p":20},"nom":"Lilas des indes","info":{"genre":"Lagerstroemia","espece":"indica","stade_developpement":"Jeune (arbre)"},"id":"93b1189c14c04f02c22e3b5a7c3f8edb06a4c62d","geo":{"type":"Point","coordinates":[2.319701220568213,48.89916979406292]},"meta":{"arrondissement":"PARIS 17E ARRDT","adresse":"CIMETIERE DES BATIGNOLLES / DIV 998"}},{"taille":{"h":0,"p":0},"nom":"Lilas des indes","info":{"genre":"Lagerstroemia","espece":"indica"},"id":"63f380f139a1cc7ef5706a9e9cb227ed4d0fde8c","geo":{"type":"Point","coordinates":[2.283970080710863,48.83896025992982]},"meta":{"arrondissement":"PARIS 15E ARRDT","adresse":"CIMETIERE DE VAUGIRARD / AVENUE DE GRENELLE / DIV 17"}},{"taille":{"h":4,"p":30},"nom":"Lilas des indes","info":{"genre":"Lagerstroemia","espece":"indica"},"id":"09483a5022a8adebe2a1ce4aa55af06acb6d2d7e","geo":{"type":"Point","coordinates":[2.348173145048268,48.81951629531794]},"meta":{"arrondissement":"PARIS 13E ARRDT","adresse":"JARDIN JEAN-CLAUDE NICOLAS FORESTIER"}},{"taille":{"h":3,"p":35},"nom":"Lilas des indes","info":{"genre":"Lagerstroemia","espece":"indica","stade_developpement":"Jeune (arbre)"},"id":"4290528911dfc5454df35906edb149247966eb01","geo":{"type":"Point","coordinates":[2.267511651703353,48.848957258251396]},"meta":{"arrondissement":"PARIS 16E ARRDT","adresse":"RUE DES PERCHAMPS"}},{"taille":{"h":3,"p":20},"nom":"Lilas des indes","info":{"genre":"Lagerstroemia","espece":"indica","stade_developpement":"Jeune (arbre)"},"id":"727e7f6497a972a772045d718ce5b395d056af2c","geo":{"type":"Point","coordinates":[2.356265664690448,48.83313716654094]},"meta":{"arrondissement":"PARIS 13E ARRDT","adresse":"BOULEVARD DE L HOPITAL"}},{"taille":{"h":5,"p":30},"nom":"Lilas des indes","info":{"genre":"Lagerstroemia","espece":"indica","stade_developpement":"Jeune (arbre)Adulte"},"id":"55a73d77b742b550ea56ac69bde9a9dfbd31fcda","geo":{"type":"Point","coordinates":[2.360466508564314,48.85659752410951]},"meta":{"arrondissement":"PARIS 4E ARRDT","adresse":"RUE DES ROSIERS"}},{"taille":{"h":5,"p":30},"nom":"Lilas des indes","info":{"genre":"Lagerstroemia","espece":"indica","stade_developpement":"Jeune (arbre)Adulte"},"id":"fe34c5db4a7737725c9b6310aaabc8fa531cd6bc","geo":{"type":"Point","coordinates":[2.360730106812232,48.85652470023864]},"meta":{"arrondissement":"PARIS 4E ARRDT","adresse":"RUE DES ROSIERS"}},{"taille":{"h":5,"p":20},"nom":"Lilas des indes","info":{"genre":"Lagerstroemia","espece":"indica"},"id":"c6655c3ab53a45afecc40754f4b277c52358080d","geo":{"type":"Point","coordinates":[2.296882278149465,48.85062694897235]},"meta":{"arrondissement":"PARIS 15E ARRDT","adresse":"PLACE DU CARDINAL AMETTE"}},{"taille":{"h":0,"p":0},"nom":"Lilas des indes","info":{"genre":"Lagerstroemia","espece":"indica"},"id":"ded58195fce30125530c8e655e076bd6be98a7f8","geo":{"type":"Point","coordinates":[2.284220449489498,48.83880850534219]},"meta":{"arrondissement":"PARIS 15E ARRDT","adresse":"CIMETIERE DE VAUGIRARD / AVENUE DE GRENELLE / DIV 16"}},{"taille":{"h":3,"p":25},"nom":"Lilas des indes","info":{"genre":"Lagerstroemia","espece":"indica","stade_developpement":"Jeune (arbre)"},"id":"7af3242cd2d38adc05012c369e000cb01e048100","geo":{"type":"Point","coordinates":[2.26797969672654,48.849143737339126]},"meta":{"arrondissement":"PARIS 16E ARRDT","adresse":"RUE DES PERCHAMPS"}},{"taille":{"h":3,"p":30},"nom":"Lilas des indes","info":{"genre":"Lagerstroemia","espece":"indica","stade_developpement":"Jeune (arbre)"},"id":"dba9491b066ad91d3a9e944ccfbaf940618559f7","geo":{"type":"Point","coordinates":[2.27919609615529,48.85145488591211]},"meta":{"arrondissement":"PARIS 16E ARRDT","adresse":"PARKING MAISON DE LA RADION / 7 AVENUE DU PRESIDENT KENNEDY"}},{"taille":{"h":3,"p":20},"nom":"Lilas des indes","info":{"genre":"Lagerstroemia","espece":"indica","stade_developpement":"Jeune (arbre)"},"id":"d14180e3a13be611334a1a14fac373d9c29e99bf","geo":{"type":"Point","coordinates":[2.2961226444822183,48.865622417478185]},"meta":{"arrondissement":"PARIS 16E ARRDT","adresse":"SQUARE DU MUSEE GALLIERA / 10 AVENUE PIERRE 1ER DE SERBIE"}},{"taille":{"h":5,"p":20},"nom":"Lilas des indes","info":{"genre":"Lagerstroemia","espece":"indica"},"id":"1b1dbc5e55778ff9c66f8b7d8114e6dbe3252a41","geo":{"type":"Point","coordinates":[2.37943452343302,48.871392501027294]},"meta":{"arrondissement":"PARIS 20E ARRDT","adresse":"CENTRE SPORTIF ALFRED NAKACHE / 12 RUE DENOYEZ"}},{"taille":{"h":0,"p":20},"nom":"Lilas des indes","info":{"genre":"Lagerstroemia","espece":"indica","variete":"''Rosea Nova''"},"id":"03aa4ea5b7f3c15a8f08145de9dab41b27c2754b","geo":{"type":"Point","coordinates":[2.349768901665685,48.82870244804653]},"meta":{"arrondissement":"PARIS 13E ARRDT","adresse":"JARDIN BRASSAI / 2 RUE EUGENE ATGET"}},{"taille":{"h":4,"p":31},"nom":"Lilas des indes","info":{"genre":"Lagerstroemia","espece":"indica","stade_developpement":"Jeune (arbre)Adulte"},"id":"253b9d45e6d56d0ef487c7e17c1c45abfe250f52","geo":{"type":"Point","coordinates":[2.359198778408897,48.86734703902963]},"meta":{"arrondissement":"PARIS 3E ARRDT","adresse":"RUE NOTRE DAME DE NAZARETH"}},{"taille":{"h":4,"p":40},"nom":"Lilas des indes","info":{"genre":"Lagerstroemia","espece":"indica","stade_developpement":"Adulte"},"id":"9a24038ef390447bd7e01e1664cbe66af8f0d22b","geo":{"type":"Point","coordinates":[2.3468739580994082,48.836429223856335]},"meta":{"arrondissement":"PARIS 13E ARRDT","adresse":"RUE BROCA"}},{"taille":{"h":3,"p":20},"nom":"Lilas des indes","info":{"genre":"Lagerstroemia","espece":"indica","stade_developpement":"Jeune (arbre)"},"id":"0188816da3b325f18c21b18b885b7a3404c37d59","geo":{"type":"Point","coordinates":[2.308047122702271,48.827976289428015]},"meta":{"arrondissement":"PARIS 14E ARRDT","adresse":"ECOLE ELEMENTAIRE / 5 SQUARE ALAIN FOURNIER"}},{"taille":{"h":4,"p":52},"nom":"Lilas des indes","info":{"genre":"Lagerstroemia","espece":"indica","stade_developpement":"Jeune (arbre)Adulte"},"id":"4e83b41a81e163153e603fb1c55e51580195f176","geo":{"type":"Point","coordinates":[2.27939100088973,48.851572446420825]},"meta":{"arrondissement":"PARIS 16E ARRDT","adresse":"PARKING MAISON DE LA RADION / 7 AVENUE DU PRESIDENT KENNEDY"}},{"taille":{"h":3,"p":18},"nom":"Lilas des indes","info":{"genre":"Lagerstroemia","espece":"indica","stade_developpement":"Jeune (arbre)"},"id":"f7767db603ae0b6abe14e6a9a2f9da003c99ba67","geo":{"type":"Point","coordinates":[2.362324253365561,48.8595338931999]},"meta":{"arrondissement":"PARIS 3E ARRDT","adresse":"JARDIN BERTHE WEILL / 1 RUE DE THORIGNY"}},{"taille":{"h":4,"p":15},"nom":"Lilas des indes","info":{"genre":"Lagerstroemia","espece":"indica","stade_developpement":"Jeune (arbre)"},"id":"bdbd971aeca7df7f7cef98f91fbf001d7c59f75b","geo":{"type":"Point","coordinates":[2.284605453221462,48.88469483146965]},"meta":{"arrondissement":"PARIS 17E ARRDT","adresse":"PROMENADE BERNARD LAFAY PR A4"}},{"taille":{"h":5,"p":40},"nom":"Lilas des indes","info":{"genre":"Lagerstroemia","espece":"indica","stade_developpement":"Jeune (arbre)"},"id":"3c689241902fb4f477154559ca2ba5ace65d1efc","geo":{"type":"Point","coordinates":[2.355282034753456,48.82588903110504]},"meta":{"arrondissement":"PARIS 13E ARRDT","adresse":"RUE DAMESME"}},{"taille":{"h":3,"p":30},"nom":"Lilas des indes","info":{"genre":"Lagerstroemia","espece":"indica","stade_developpement":"Jeune (arbre)"},"id":"3016b9304b437d00af6ce4ffe367719b97e973cf","geo":{"type":"Point","coordinates":[2.254692703747002,48.83804837007905]},"meta":{"arrondissement":"PARIS 16E ARRDT","adresse":"JARDINS DE LA PORTE DE SAINT CLOUD / AVENUE EDOUARD VAILLANT"}},{"taille":{"h":4,"p":20},"nom":"Lilas des indes","info":{"genre":"Lagerstroemia","espece":"n. sp.","stade_developpement":"Jeune (arbre)"},"id":"8710d98eb15c27da471c5c495bd9010945462e96","geo":{"type":"Point","coordinates":[2.35204755381135,48.82013821141004]},"meta":{"arrondissement":"PARIS 13E ARRDT","adresse":"AVENUE CAFFIERI"}},{"taille":{"h":3,"p":15},"nom":"Lilas des indes","info":{"genre":"Lagerstroemia","espece":"indica","stade_developpement":"Jeune (arbre)"},"id":"46768f94239186b2fee031a72c483d260b9bc629","geo":{"type":"Point","coordinates":[2.407267807562306,48.858885779068395]},"meta":{"arrondissement":"PARIS 20E ARRDT","adresse":"ECOLE MATERNELLE / 68 RUE VITRUVE"}},{"taille":{"h":3,"p":30},"nom":"Lilas des indes","info":{"genre":"Lagerstroemia","espece":"indica","stade_developpement":"Jeune (arbre)"},"id":"2c1990c84a944a93928bc85a516d6436b7071ceb","geo":{"type":"Point","coordinates":[2.254711514778083,48.83809061405381]},"meta":{"arrondissement":"PARIS 16E ARRDT","adresse":"JARDINS DE LA PORTE DE SAINT CLOUD / AVENUE EDOUARD VAILLANT"}},{"taille":{"h":2,"p":15},"nom":"Lilas des indes","info":{"genre":"Lagerstroemia","espece":"indica","stade_developpement":"Jeune (arbre)"},"id":"b4d1afa64012e87668839e564142e8fb6424d8e0","geo":{"type":"Point","coordinates":[2.390988641209211,48.85215814949404]},"meta":{"arrondissement":"PARIS 11E ARRDT","adresse":"SQUARE DES JARDINIERS / 4 PASSAGE DUMAS"}},{"taille":{"h":5,"p":20},"nom":"Lilas des indes","info":{"genre":"Lagerstroemia","espece":"indica"},"id":"a8760de813b55afd9602afcbc84807235d2f6c46","geo":{"type":"Point","coordinates":[2.351878998444772,48.82010728558938]},"meta":{"arrondissement":"PARIS 13E ARRDT","adresse":"AVENUE CAFFIERI"}},{"taille":{"h":4,"p":38},"nom":"Lilas des indes","info":{"genre":"Lagerstroemia","espece":"indica","stade_developpement":"Jeune (arbre)"},"id":"c312c35a25c3f1fdcb2d45c76410eeee15ef0bec","geo":{"type":"Point","coordinates":[2.311497217308068,48.86928931490623]},"meta":{"arrondissement":"PARIS 8E ARRDT","adresse":"JARDINS DES CHAMPS ELYSEES - SQUARE MARIGNY / 41 AVENUE GABRIEL"}},{"taille":{"h":5,"p":35},"nom":"Lilas des indes","info":{"genre":"Lagerstroemia","espece":"indica","stade_developpement":"Jeune (arbre)"},"id":"6ced5d4290a729314586d83895b0d2b4fcd3d6c4","geo":{"type":"Point","coordinates":[2.383160812401073,48.893471999922305]},"meta":{"arrondissement":"PARIS 19E ARRDT","adresse":"PLACE DE L ARGONNE"}},{"taille":{"h":4,"p":30},"nom":"Lilas des indes","info":{"genre":"Lagerstroemia","espece":"indica","stade_developpement":"Jeune (arbre)Adulte"},"id":"ae72470ee3cc8ecf1d02aa0164aea9424137cf9a","geo":{"type":"Point","coordinates":[2.360278923591909,48.86719125044375]},"meta":{"arrondissement":"PARIS 3E ARRDT","adresse":"RUE NOTRE DAME DE NAZARETH"}},{"taille":{"h":4,"p":30},"nom":"Lilas des indes","info":{"genre":"Lagerstroemia","espece":"indica"},"id":"afa1ca8c57f8755eac2ce2f55bfbf68cb4d4df49","geo":{"type":"Point","coordinates":[2.348139131121147,48.81893935444868]},"meta":{"arrondissement":"PARIS 13E ARRDT","adresse":"JARDIN JEAN-CLAUDE NICOLAS FORESTIER"}},{"taille":{"h":0,"p":0},"nom":"Lilas des indes","info":{"genre":"Lagerstroemia","espece":"indica"},"id":"3529c9e24e266c82152273acd1a36fcf7b23d5e0","geo":{"type":"Point","coordinates":[2.284382994704102,48.83871409945275]},"meta":{"arrondissement":"PARIS 15E ARRDT","adresse":"CIMETIERE DE VAUGIRARD / AVENUE DE GRENELLE / DIV 16"}},{"taille":{"h":5,"p":20},"nom":"Lilas des indes","info":{"genre":"Lagerstroemia","espece":"indica","stade_developpement":"Jeune (arbre)Adulte"},"id":"ca7c14fc9f4f161c698aab67195c0fcde4b43b12","geo":{"type":"Point","coordinates":[2.388202770267065,48.83590665716623]},"meta":{"arrondissement":"PARIS 12E ARRDT","adresse":"RUE GERTY ARCHIMEDE"}},{"taille":{"h":3,"p":27},"nom":"Lilas des indes","info":{"genre":"Lagerstroemia","espece":"indica","stade_developpement":"Jeune (arbre)"},"id":"168cadcf8e5c235f07e2258f781122302d962412","geo":{"type":"Point","coordinates":[2.31643016505455,48.86774243131652]},"meta":{"arrondissement":"PARIS 8E ARRDT","adresse":"JARDINS DES CHAMPS ELYSEES - JARDIN DES AMBASSADEURS / 10 AVENUE DES CHAMPS ELYSEES"}},{"taille":{"h":3,"p":30},"nom":"Lilas des indes","info":{"genre":"Lagerstroemia","espece":"indica"},"id":"87d8fbe94fea743a602eb3819e08a4dae23e36d7","geo":{"type":"Point","coordinates":[2.3599621596378793,48.8360055104738]},"meta":{"arrondissement":"PARIS 13E ARRDT","adresse":"JARDIN DE LA PLACE LOUIS ARMSTRONG / 2 PLACE LOUIS ARMSTRONG"}},{"taille":{"h":4,"p":35},"nom":"Lilas des indes","info":{"genre":"Lagerstroemia","espece":"indica"},"id":"a6c23befa20d7e22506a431bbb98a3a847b478ad","geo":{"type":"Point","coordinates":[2.359859225103631,48.83601818932338]},"meta":{"arrondissement":"PARIS 13E ARRDT","adresse":"JARDIN DE LA PLACE LOUIS ARMSTRONG / 2 PLACE LOUIS ARMSTRONG"}},{"taille":{"h":3,"p":30},"nom":"Lilas des indes","info":{"genre":"Lagerstroemia","espece":"indica","stade_developpement":"Jeune (arbre)"},"id":"12b9aa322402053b99a4f9f3295b8076dae253c5","geo":{"type":"Point","coordinates":[2.254507989815075,48.83800967007131]},"meta":{"arrondissement":"PARIS 16E ARRDT","adresse":"JARDINS DE LA PORTE DE SAINT CLOUD / AVENUE EDOUARD VAILLANT"}},{"taille":{"h":5,"p":25},"nom":"Lilas des indes","info":{"genre":"Lagerstroemia","espece":"indica","stade_developpement":"Jeune (arbre)Adulte"},"id":"556931cfa52d662de97467c04d3432ab52e2c4bd","geo":{"type":"Point","coordinates":[2.344439483781605,48.864497946240945]},"meta":{"arrondissement":"PARIS 1ER ARRDT","adresse":"RUE JEAN JACQUES ROUSSEAU"}},{"taille":{"h":2,"p":39},"nom":"Lilas des indes","info":{"genre":"Lagerstroemia","espece":"indica","stade_developpement":"Jeune (arbre)Adulte"},"id":"75fe6526a0a308ae56fa8a87ecddfd4c593e0a03","geo":{"type":"Point","coordinates":[2.255556196046708,48.847412693973446]},"meta":{"arrondissement":"PARIS 16E ARRDT","adresse":"SQUARE DES POETES"}},{"taille":{"h":4,"p":34},"nom":"Lilas des indes","info":{"genre":"Lagerstroemia","espece":"indica","stade_developpement":"Jeune (arbre)Adulte"},"id":"f06809c7c8b2b35253a792c14e2a5aee7d6f7b0b","geo":{"type":"Point","coordinates":[2.252732016313068,48.845932029536094]},"meta":{"arrondissement":"PARIS 16E ARRDT","adresse":"JARDIN DES SERRES D AUTEUIL / 1 AVENUE GORDON BENNETT"}},{"taille":{"h":5,"p":20},"nom":"Lilas des indes","info":{"genre":"Lagerstroemia","espece":"indica"},"id":"3cca8b0b2d75c5c43230d48d55ca4486fe7df64d","geo":{"type":"Point","coordinates":[2.394356296571031,48.878783381398875]},"meta":{"arrondissement":"PARIS 19E ARRDT","adresse":"RUE EUGENIE COTTON"}},{"taille":{"h":2,"p":25},"nom":"Lilas des indes","info":{"genre":"Lagerstroemia","espece":"indica"},"id":"6a17596814b160365f2d62198efe68e811f003a0","geo":{"type":"Point","coordinates":[2.402950337260208,48.904359279018514]},"meta":{"arrondissement":"SEINE-SAINT-DENIS","adresse":"CIMETIERE DE PANTIN / DIV 290"}},{"taille":{"h":3,"p":20},"nom":"Lilas des indes","info":{"genre":"Lagerstroemia","espece":"indica","stade_developpement":"Jeune (arbre)"},"id":"0253bb3142321cc8672f6e4a5491773cb028d9d8","geo":{"type":"Point","coordinates":[2.285428238324353,48.878517762666505]},"meta":{"arrondissement":"PARIS 17E ARRDT","adresse":"JARDINIERES DE LA GARE ET PARKING MAILLOT / 224 BOULEVARD PEREIRE"}},{"taille":{"h":2,"p":10},"nom":"Lilas des indes","info":{"genre":"Lagerstroemia","espece":"indica"},"id":"cb7a8e52090ff127febc208cb350fc83a10ec8fa","geo":{"type":"Point","coordinates":[2.275218835256943,48.86481053884347]},"meta":{"arrondissement":"PARIS 16E ARRDT","adresse":"SQUARE LAMARTINE / 3 SQUARE LAMARTINE"}},{"taille":{"h":3,"p":18},"nom":"Lilas des indes","info":{"genre":"Lagerstroemia","espece":"indica","stade_developpement":"Jeune (arbre)"},"id":"544f59381c784ccdcff4a3a9ff1d2e6102e2e88b","geo":{"type":"Point","coordinates":[2.288376035647266,48.880272925406906]},"meta":{"arrondissement":"PARIS 17E ARRDT","adresse":"PROMENADE PEREIRE TERNES/GUERSANT"}},{"taille":{"h":5,"p":25},"nom":"Lilas des indes","info":{"genre":"Lagerstroemia","espece":"indica","stade_developpement":"Jeune (arbre)"},"id":"19f337cb9bd070657eace97cbe2d998b7c31b375","geo":{"type":"Point","coordinates":[2.38763603562837,48.83583557623506]},"meta":{"arrondissement":"PARIS 12E ARRDT","adresse":"ECOLE ELEMENTAIRE / 5 RUE GERTY ARCHIMEDE"}},{"taille":{"h":5,"p":45},"nom":"Lilas des indes","info":{"genre":"Lagerstroemia","espece":"indica","stade_developpement":"Jeune (arbre)Adulte"},"id":"647bfe522f8a840aa9c575e1613a9c5969d7793f","geo":{"type":"Point","coordinates":[2.355294220807775,48.82580241497587]},"meta":{"arrondissement":"PARIS 13E ARRDT","adresse":"RUE DAMESME"}},{"taille":{"h":3,"p":20},"nom":"Lilas des indes","info":{"genre":"Lagerstroemia","espece":"indica","stade_developpement":"Jeune (arbre)"},"id":"2550d7eccbdb300b225f71e5799bb384f85ec119","geo":{"type":"Point","coordinates":[2.286850239930969,48.87926116435195]},"meta":{"arrondissement":"PARIS 17E ARRDT","adresse":"PROMENADE PEREIRE TERNES MAILLOT / 87 BIS AVENUE DES TERNES"}},{"taille":{"h":4,"p":26},"nom":"Lilas des indes","info":{"genre":"Lagerstroemia","espece":"indica","stade_developpement":"Adulte"},"id":"7ebe30cb48235d460138da587974af171981daf3","geo":{"type":"Point","coordinates":[2.33852844074843,48.82245067855689]},"meta":{"arrondissement":"PARIS 14E ARRDT","adresse":"PARC MONTSOURIS / 28 BOULEVARD JOURDAN"}},{"taille":{"h":5,"p":35},"nom":"Lilas des indes","info":{"genre":"Lagerstroemia","espece":"indica","stade_developpement":"Jeune (arbre)"},"id":"9989f70575807027fd32571fbb46fc192dbf87e7","geo":{"type":"Point","coordinates":[2.3552712588864972,48.825979468181494]},"meta":{"arrondissement":"PARIS 13E ARRDT","adresse":"RUE DAMESME"}},{"taille":{"h":1,"p":10},"nom":"Lilas des indes","info":{"genre":"Lagerstroemia","espece":"indica"},"id":"7f73d4946097495e5a6263eeeb5152380cc36c7a","geo":{"type":"Point","coordinates":[2.4213520133499102,48.90842019109304]},"meta":{"arrondissement":"SEINE-SAINT-DENIS","adresse":"PARC DES SPORTS INTERDEPARTEMENTAL DE BOBIGNY / 40 AVENUE DE LA DIVISION LECLERC - BOBIGNY"}},{"taille":{"h":5,"p":20},"nom":"Lilas des indes","info":{"genre":"Lagerstroemia","espece":"indica"},"id":"c7f62b15bbd4d647c8ac937e3e0f6153a5070085","geo":{"type":"Point","coordinates":[2.319354267369093,48.88049015397114]},"meta":{"arrondissement":"PARIS 8E ARRDT","adresse":"RUE BERNOUILLI"}},{"taille":{"h":4,"p":24},"nom":"Lilas des indes","info":{"genre":"Lagerstroemia","espece":"indica","stade_developpement":"Jeune (arbre)"},"id":"67260758caf0fa47ef9691e3a9a0d5ed6c343376","geo":{"type":"Point","coordinates":[2.287178222439127,48.87962592003672]},"meta":{"arrondissement":"PARIS 17E ARRDT","adresse":"PROMENADE PEREIRE TERNES MAILLOT / 87 BIS AVENUE DES TERNES"}},{"taille":{"h":2,"p":20},"nom":"Lilas des indes","info":{"genre":"Lagerstroemia","espece":"indica","stade_developpement":"Jeune (arbre)"},"id":"338077f44b7e47481a9ac1eaceaf982be4c6f72e","geo":{"type":"Point","coordinates":[2.339208123772939,48.88855720439315]},"meta":{"arrondissement":"PARIS 18E ARRDT","adresse":"CRECHE COLLECTIVE / 16 RUE DE L ABREUVOIR"}},{"taille":{"h":4,"p":29},"nom":"Lilas des indes","info":{"genre":"Lagerstroemia","espece":"indica","stade_developpement":"Jeune (arbre)Adulte"},"id":"197f309d0ab8483824e04be89687b4b8aef15326","geo":{"type":"Point","coordinates":[2.359619519779543,48.8672871733784]},"meta":{"arrondissement":"PARIS 3E ARRDT","adresse":"RUE NOTRE DAME DE NAZARETH"}},{"taille":{"h":5,"p":25},"nom":"Lilas des indes","info":{"genre":"Lagerstroemia","espece":"indica","stade_developpement":"Jeune (arbre)Adulte"},"id":"2b4914e5c327fc967322d9e4a699452d278a04ad","geo":{"type":"Point","coordinates":[2.343282080665761,48.863905587127256]},"meta":{"arrondissement":"PARIS 1ER ARRDT","adresse":"RUE JEAN JACQUES ROUSSEAU"}},{"taille":{"h":3,"p":20},"nom":"Lilas des indes","info":{"genre":"Lagerstroemia","espece":"indica","stade_developpement":"Jeune (arbre)"},"id":"d4c2839daebeb18de0e0d5db594810643108f641","geo":{"type":"Point","coordinates":[2.2849878944732,48.87837947700022]},"meta":{"arrondissement":"PARIS 17E ARRDT","adresse":"JARDINIERES DE LA GARE ET PARKING MAILLOT / 224 BOULEVARD PEREIRE"}},{"taille":{"h":5,"p":20},"nom":"Lilas des indes","info":{"genre":"Lagerstroemia","espece":"indica"},"id":"4784fa35240f7a8f229f25980d3c610e764febf2","geo":{"type":"Point","coordinates":[2.352057273410892,48.88956372940368]},"meta":{"arrondissement":"PARIS 18E ARRDT","adresse":"CRECHE COLLECTIVE / 15 RUE PIERRE BUDIN"}},{"taille":{"h":1,"p":5},"nom":"Lilas des indes","info":{"genre":"Lagerstroemia","espece":"indica","stade_developpement":"Jeune (arbre)"},"id":"2e9dc9fbdade63a0435f8353443465aacd4c9d2c","geo":{"type":"Point","coordinates":[2.361517752019816,48.89317105168421]},"meta":{"arrondissement":"PARIS 18E ARRDT","adresse":"SQUARE DE LA MADONE / 30 RUE MARC SEGUIN"}},{"taille":{"h":3,"p":20},"nom":"Lilas des indes","info":{"genre":"Lagerstroemia","espece":"indica","stade_developpement":"Jeune (arbre)"},"id":"4a4ee88d22b67e21b6c6074cdafdbbd6c4cab8ff","geo":{"type":"Point","coordinates":[2.3961039610725052,48.87723433708574]},"meta":{"arrondissement":"PARIS 19E ARRDT","adresse":"ECOLE MATERNELLE / 2 RUE DES BOIS"}},{"taille":{"h":5,"p":20},"nom":"Lilas des indes","info":{"genre":"Lagerstroemia","espece":"indica","stade_developpement":"Jeune (arbre)"},"id":"7d5c4ac7fd1af17028392d65eb83c90595386d1a","geo":{"type":"Point","coordinates":[2.361178280276885,48.85623330284876]},"meta":{"arrondissement":"PARIS 4E ARRDT","adresse":"RUE DES ROSIERS"}},{"taille":{"h":4,"p":37},"nom":"Lilas des indes","info":{"genre":"Lagerstroemia","espece":"n. sp.","stade_developpement":"Jeune (arbre)"},"id":"6fbec2cc7819e30d3d3207c89ac92f97e7a094b0","geo":{"type":"Point","coordinates":[2.277341301789901,48.85908922593792]},"meta":{"arrondissement":"PARIS 16E ARRDT","adresse":"PLACE POSSOZ"}},{"taille":{"h":3,"p":47},"nom":"Lilas des indes","info":{"genre":"Lagerstroemia","espece":"indica","stade_developpement":"Jeune (arbre)Adulte"},"id":"eb3a45b747b3d824c08ba35db44d1fa3a4403a7b","geo":{"type":"Point","coordinates":[2.360163114470538,48.83618847357747]},"meta":{"arrondissement":"PARIS 13E ARRDT","adresse":"PLACE LOUIS ARMSTRONG"}},{"taille":{"h":5,"p":10},"nom":"Lilas des indes","info":{"genre":"Lagerstroemia","espece":"indica","stade_developpement":"Jeune (arbre)"},"id":"85f6075ee0e7272a9206780373b53d7c609b21de","geo":{"type":"Point","coordinates":[2.337197486533528,48.888488975336074]},"meta":{"arrondissement":"PARIS 18E ARRDT","adresse":"SQUARE SUZANNE BUISSON"}},{"taille":{"h":37,"p":10},"nom":"Lilas des indes","info":{"genre":"Lagerstroemia","espece":"indica"},"id":"8db472ff8525d0e159cf522c6be3e612c7bd02f3","geo":{"type":"Point","coordinates":[2.354044342855921,48.83879966067713]},"meta":{"arrondissement":"PARIS 5E ARRDT","adresse":"SQUARE THEODORE MONOD / 23 RUE DU FER A MOULIN"}},{"taille":{"h":5,"p":20},"nom":"Lilas des indes","info":{"genre":"Lagerstroemia","espece":"indica"},"id":"ac9ab43c14b35f1f128bd9af0b475015e932c2df","geo":{"type":"Point","coordinates":[2.322129466008657,48.83030938200261]},"meta":{"arrondissement":"PARIS 14E ARRDT","adresse":"RUE DU MOULIN VERT"}},{"taille":{"h":4,"p":41},"nom":"Lilas des indes","info":{"genre":"Lagerstroemia","espece":"indica","stade_developpement":"Jeune (arbre)Adulte"},"id":"91f52cd4c6d2a07017afa03217ed67878b398781","geo":{"type":"Point","coordinates":[2.35950733544713,48.82295681658058]},"meta":{"arrondissement":"PARIS 13E ARRDT","adresse":"VILLA DELODER"}},{"taille":{"h":4,"p":25},"nom":"Lilas des indes","info":{"genre":"Lagerstroemia","espece":"indica","stade_developpement":"Jeune (arbre)"},"id":"f55c321d505e81067de96867ac08ece4d862d00f","geo":{"type":"Point","coordinates":[2.332208870519711,48.876823048510225]},"meta":{"arrondissement":"PARIS 9E ARRDT","adresse":"SQUARE D''ESTIENNE D''ORVES"}},{"taille":{"h":5,"p":45},"nom":"Lilas des indes","info":{"genre":"Lagerstroemia","espece":"indica","stade_developpement":"Jeune (arbre)Adulte"},"id":"7091c9970126dec803ae82f1b470614a4a214c8e","geo":{"type":"Point","coordinates":[2.355299697795946,48.825757151942]},"meta":{"arrondissement":"PARIS 13E ARRDT","adresse":"RUE DAMESME"}},{"taille":{"h":3,"p":45},"nom":"Lilas des indes","info":{"genre":"Lagerstroemia","espece":"indica","stade_developpement":"Adulte"},"id":"7750361ce216c762f8205b1b7a0317be354c8ca7","geo":{"type":"Point","coordinates":[2.346549582629739,48.822403393643036]},"meta":{"arrondissement":"PARIS 13E ARRDT","adresse":"PLACE DE RUNGIS"}},{"taille":{"h":5,"p":42},"nom":"Lilas des indes","info":{"genre":"Lagerstroemia","espece":"indica","stade_developpement":"Jeune (arbre)Adulte"},"id":"144ed2a2cd7d15e87baf7712e3abc627b5644fe2","geo":{"type":"Point","coordinates":[2.279331948833941,48.85993059882214]},"meta":{"arrondissement":"PARIS 16E ARRDT","adresse":"RUE VITAL"}},{"taille":{"h":3,"p":26},"nom":"Lilas des indes","info":{"genre":"Lagerstroemia","espece":"indica"},"id":"3db70ae62b0519ede0d3fcde194db3ecbd216fef","geo":{"type":"Point","coordinates":[2.360104095461241,48.836093031814755]},"meta":{"arrondissement":"PARIS 13E ARRDT","adresse":"JARDIN DE LA PLACE LOUIS ARMSTRONG / 2 PLACE LOUIS ARMSTRONG"}},{"taille":{"h":5,"p":40},"nom":"Lilas des indes","info":{"genre":"Lagerstroemia","espece":"indica","stade_developpement":"Jeune (arbre)"},"id":"774a93e7c8ec47d4f020ddaff2d3a0945db18957","geo":{"type":"Point","coordinates":[2.31965160497719,48.83200759580401]},"meta":{"arrondissement":"PARIS 14E ARRDT","adresse":"JARDIN ALBERTO GIACOMETTI / 1 RUE DES THERMOPYLES"}},{"taille":{"h":3,"p":40},"nom":"Lilas des indes","info":{"genre":"Lagerstroemia","espece":"indica","stade_developpement":"Jeune (arbre)Adulte"},"id":"b720ba85ef09396a6acc1ea3ccd623c8cec80b63","geo":{"type":"Point","coordinates":[2.359705711348886,48.83613570636545]},"meta":{"arrondissement":"PARIS 13E ARRDT","adresse":"PLACE LOUIS ARMSTRONG"}},{"taille":{"h":5,"p":40},"nom":"Lilas des indes","info":{"genre":"Lagerstroemia","espece":"indica","stade_developpement":"Jeune (arbre)Adulte"},"id":"66e7ebadc813fd823ffe0cc16a6e5aad01e09c59","geo":{"type":"Point","coordinates":[2.355355092569854,48.82530681826948]},"meta":{"arrondissement":"PARIS 13E ARRDT","adresse":"RUE DAMESME"}},{"taille":{"h":3,"p":30},"nom":"Lilas des indes","info":{"genre":"Lagerstroemia","espece":"indica","stade_developpement":"Jeune (arbre)Adulte"},"id":"dfcd83cc8a0bf21b107443f135f4e113227e8c17","geo":{"type":"Point","coordinates":[2.359799395447343,48.867261650040064]},"meta":{"arrondissement":"PARIS 3E ARRDT","adresse":"RUE NOTRE DAME DE NAZARETH"}},{"taille":{"h":4,"p":18},"nom":"Lilas des indes","info":{"genre":"Lagerstroemia","espece":"indica","stade_developpement":"Jeune (arbre)"},"id":"81c046d3ed93ab1273fdc9f42110f9bb86d5bd71","geo":{"type":"Point","coordinates":[2.272517543241201,48.83736314810632]},"meta":{"arrondissement":"PARIS 15E ARRDT","adresse":"SQUARE CARLO SARRABEZOLLES / 1 RUE RENE RAVAUD"}},{"taille":{"h":1,"p":5},"nom":"Lilas des indes","info":{"genre":"Lagerstroemia","espece":"indica","stade_developpement":"Jeune (arbre)"},"id":"cb20198dad07be3b36e47103c54ba1ec898b8968","geo":{"type":"Point","coordinates":[2.343580219049644,48.88479244877045]},"meta":{"arrondissement":"PARIS 18E ARRDT","adresse":"SQUARE LOUISE MICHEL / 6 PLACE SAINT PIERRE"}},{"taille":{"h":3,"p":20},"nom":"Lilas des indes","info":{"genre":"Lagerstroemia","espece":"indica"},"id":"8b957637731b3d38662d2b69e10a7ba4803ef921","geo":{"type":"Point","coordinates":[2.347004663000291,48.872066003242615]},"meta":{"arrondissement":"PARIS 9E ARRDT","adresse":"RUE BERGERE"}},{"taille":{"h":3,"p":35},"nom":"Lilas des indes","info":{"genre":"Lagerstroemia","espece":"indica","stade_developpement":"Jeune (arbre)Adulte"},"id":"1df11dabdf31632cf2ad03804bd89130aca5fded","geo":{"type":"Point","coordinates":[2.318530866537485,48.87185789985201]},"meta":{"arrondissement":"PARIS 8E ARRDT","adresse":"PLACE DES SAUSSAIES"}},{"taille":{"h":3,"p":15},"nom":"Lilas des indes","info":{"genre":"Lagerstroemia","espece":"indica","stade_developpement":"Jeune (arbre)"},"id":"b5476d4524a80781eb88ada4df4252f2bc9b3fb1","geo":{"type":"Point","coordinates":[2.307567604782038,48.82771271219489]},"meta":{"arrondissement":"PARIS 14E ARRDT","adresse":"ECOLE ELEMENTAIRE / 5 SQUARE ALAIN FOURNIER"}},{"taille":{"h":5,"p":29},"nom":"Lilas des indes","info":{"genre":"Lagerstroemia","espece":"indica","stade_developpement":"Adulte"},"id":"45b6f935c52cdcc08ca91c90990c3954c3ea5346","geo":{"type":"Point","coordinates":[2.356414507889663,48.86516392786502]},"meta":{"arrondissement":"PARIS 3E ARRDT","adresse":"RUE BAILLY"}},{"taille":{"h":2,"p":10},"nom":"Lilas des indes","info":{"genre":"Lagerstroemia","espece":"indica"},"id":"3417b10847cbc3795e6bd88bf4d13bac7243ccfe","geo":{"type":"Point","coordinates":[2.275117923650002,48.864979806298145]},"meta":{"arrondissement":"PARIS 16E ARRDT","adresse":"SQUARE LAMARTINE / 3 SQUARE LAMARTINE"}},{"taille":{"h":4,"p":30},"nom":"Lilas des indes","info":{"genre":"Lagerstroemia","espece":"indica"},"id":"32920a9231b04963a00e101ff4766b9df3d6d455","geo":{"type":"Point","coordinates":[2.34825807399019,48.819398858350205]},"meta":{"arrondissement":"PARIS 13E ARRDT","adresse":"JARDIN JEAN-CLAUDE NICOLAS FORESTIER"}},{"taille":{"h":3,"p":30},"nom":"Lilas des indes","info":{"genre":"Lagerstroemia","espece":"indica","stade_developpement":"Jeune (arbre)"},"id":"f1927ec2c66c9b9a3894dd0422d11ed1a97bbe38","geo":{"type":"Point","coordinates":[2.338843417962063,48.88932996058634]},"meta":{"arrondissement":"PARIS 18E ARRDT","adresse":"CIMETIERE ST VINCENT / AVENUE DE LA FONTAINE DU BUT / DIV 6"}},{"taille":{"h":3,"p":26},"nom":"Lilas des indes","info":{"genre":"Lagerstroemia","espece":"indica","stade_developpement":"Jeune (arbre)Adulte"},"id":"f1d235af09b5eb257010f45dd181bb9ea8cd920f","geo":{"type":"Point","coordinates":[2.31941647264492,48.880492270310725]},"meta":{"arrondissement":"PARIS 8E ARRDT","adresse":"RUE BERNOUILLI"}},{"taille":{"h":4,"p":38},"nom":"Lilas des indes","info":{"genre":"Lagerstroemia","espece":"indica","stade_developpement":"Adulte"},"id":"2bd1096cadcf00e95ea4521e45890771e84bb246","geo":{"type":"Point","coordinates":[2.253877520181219,48.8374693960501]},"meta":{"arrondissement":"PARIS 16E ARRDT","adresse":"JARDINS DE LA PORTE DE SAINT CLOUD / 38 AVENUE FERDINAND BUISSON"}},{"taille":{"h":2,"p":15},"nom":"Lilas des indes","info":{"genre":"Lagerstroemia","espece":"indica","stade_developpement":"Jeune (arbre)"},"id":"a911357467f6670a414388a06a331e75378c9add","geo":{"type":"Point","coordinates":[2.391378278312339,48.851989291295986]},"meta":{"arrondissement":"PARIS 11E ARRDT","adresse":"SQUARE DES JARDINIERS / 4 PASSAGE DUMAS"}},{"taille":{"h":5,"p":20},"nom":"Lilas des indes","info":{"genre":"Lagerstroemia","espece":"indica"},"id":"0dada3248c4e2433f9e65006219bde5abde89287","geo":{"type":"Point","coordinates":[2.276503225709724,48.83313161937001]},"meta":{"arrondissement":"PARIS 15E ARRDT","adresse":"PLACE DES MARTYRS DE LA RESISTANCE"}},{"taille":{"h":5,"p":20},"nom":"Lilas des indes","info":{"genre":"Lagerstroemia","espece":"indica","variete":"''Soir d''t''"},"id":"220a5c37eae2d7703ce609f9deff5d97a02959a2","geo":{"type":"Point","coordinates":[2.413503755027501,48.85594234312733]},"meta":{"arrondissement":"PARIS 20E ARRDT","adresse":"CENTRE SPORTIF DOCTEURS DEJERINE / 36 RUE DES DOCTEURS DEJERINE"}},{"taille":{"h":2,"p":20},"nom":"Lilas des indes","info":{"genre":"Lagerstroemia","espece":"n. sp."},"id":"39692334a3d7e92ec6174597724c3f8b58b46008","geo":{"type":"Point","coordinates":[2.274974589017111,48.864492883163]},"meta":{"arrondissement":"PARIS 16E ARRDT","adresse":"SQUARE LAMARTINE / 3 SQUARE LAMARTINE"}},{"taille":{"h":5,"p":20},"nom":"Lilas des indes","info":{"genre":"Lagerstroemia","espece":"indica"},"id":"cb6121323127756d94c2e4917738a0d054e88e83","geo":{"type":"Point","coordinates":[2.278801393451016,48.83832672791887]},"meta":{"arrondissement":"PARIS 15E ARRDT","adresse":"MAIL DE LA RUE MODIGLIANI / 3 RUE MODIGLIANI"}},{"taille":{"h":4,"p":35},"nom":"Lilas des indes","info":{"genre":"Lagerstroemia","espece":"indica","stade_developpement":"Jeune (arbre)Adulte"},"id":"4f88828d36d07c17d2ac08117a9614d80a6129f2","geo":{"type":"Point","coordinates":[2.359466447059156,48.822888047008504]},"meta":{"arrondissement":"PARIS 13E ARRDT","adresse":"VILLA DELODER"}},{"taille":{"h":5,"p":25},"nom":"Lilas des indes","info":{"genre":"Lagerstroemia","espece":"indica","stade_developpement":"Jeune (arbre)Adulte"},"id":"d3248fd9d794e6fb31f531239a78f8b4e1a9e4ae","geo":{"type":"Point","coordinates":[2.343431826658719,48.86398291610404]},"meta":{"arrondissement":"PARIS 1ER ARRDT","adresse":"RUE JEAN JACQUES ROUSSEAU"}},{"taille":{"h":3,"p":20},"nom":"Lilas des indes","info":{"genre":"Lagerstroemia","espece":"indica"},"id":"fd83b1357d2b3f2934d45435157a6c07a51addbd","geo":{"type":"Point","coordinates":[2.254309153139496,48.837864863281304]},"meta":{"arrondissement":"PARIS 16E ARRDT","adresse":"JARDINS DE LA PORTE DE SAINT CLOUD / AVENUE EDOUARD VAILLANT"}},{"taille":{"h":0,"p":0},"nom":"Lilas des indes","info":{"genre":"Lagerstroemia","espece":"indica"},"id":"830225972b6f973ec5467c4e9ae37fd6953097f1","geo":{"type":"Point","coordinates":[2.284228927518022,48.83871499437753]},"meta":{"arrondissement":"PARIS 15E ARRDT","adresse":"CIMETIERE DE VAUGIRARD / AVENUE DE GRENELLE / DIV 15"}},{"taille":{"h":4,"p":40},"nom":"Lilas des indes","info":{"genre":"Lagerstroemia","espece":"indica","stade_developpement":"Jeune (arbre)Adulte"},"id":"37d31bdc130d9781ec92c80eb7169a9a252f1d24","geo":{"type":"Point","coordinates":[2.359576239468783,48.82285829905204]},"meta":{"arrondissement":"PARIS 13E ARRDT","adresse":"VILLA DELODER"}},{"taille":{"h":3,"p":20},"nom":"Lilas des indes","info":{"genre":"Lagerstroemia","espece":"indica","stade_developpement":"Jeune (arbre)"},"id":"bc27ed48a346313e43db7efb9e71d8da5b57614d","geo":{"type":"Point","coordinates":[2.332155949094074,48.876751166083785]},"meta":{"arrondissement":"PARIS 9E ARRDT","adresse":"SQUARE D''ESTIENNE D''ORVES"}},{"taille":{"h":4,"p":28},"nom":"Lilas des indes","info":{"genre":"Lagerstroemia","espece":"indica","stade_developpement":"Jeune (arbre)Adulte"},"id":"621fb72c2e358fc115183b5b71936b3bf1914dc8","geo":{"type":"Point","coordinates":[2.35944861998576,48.86731108969582]},"meta":{"arrondissement":"PARIS 3E ARRDT","adresse":"RUE NOTRE DAME DE NAZARETH"}},{"taille":{"h":5,"p":25},"nom":"Lilas des indes","info":{"genre":"Lagerstroemia","espece":"indica","stade_developpement":"Jeune (arbre)"},"id":"d4d6e6de988a00cd256bace93ca4e0858aadde28","geo":{"type":"Point","coordinates":[2.349656975167691,48.894035612309004]},"meta":{"arrondissement":"PARIS 18E ARRDT","adresse":"JARDIN DE LA RUE DU SIMPLON / 36 RUE DU SIMPLON"}},{"taille":{"h":4,"p":30},"nom":"Lilas des indes","info":{"genre":"Lagerstroemia","espece":"indica"},"id":"faffd0f8c43bcb30806847a0a2df53f0bef8fdaf","geo":{"type":"Point","coordinates":[2.359851648145553,48.83626685072007]},"meta":{"arrondissement":"PARIS 13E ARRDT","adresse":"JARDIN DE LA PLACE LOUIS ARMSTRONG / 2 PLACE LOUIS ARMSTRONG"}},{"taille":{"h":1,"p":15},"nom":"Lilas des indes","info":{"genre":"Lagerstroemia","espece":"indica"},"id":"3fa49be6041628e62fbd40378b0b6bc59e25265f","geo":{"type":"Point","coordinates":[2.374945698342678,48.87043607317846]},"meta":{"arrondissement":"PARIS 11E ARRDT","adresse":"SQUARE JULES VERNE / 1 RUE JULES VERNE"}},{"taille":{"h":2,"p":15},"nom":"Lilas des indes","info":{"genre":"Lagerstroemia","espece":"indica","stade_developpement":"Jeune (arbre)"},"id":"58ddd1d85a0d7ffbd6ed926e59bee4c6a9039854","geo":{"type":"Point","coordinates":[2.391199222555235,48.85195635446738]},"meta":{"arrondissement":"PARIS 11E ARRDT","adresse":"SQUARE DES JARDINIERS / 4 PASSAGE DUMAS"}},{"taille":{"h":5,"p":25},"nom":"Lilas des indes","info":{"genre":"Lagerstroemia","espece":"indica","stade_developpement":"Jeune (arbre)Adulte"},"id":"297db76284cf95b816d2f8ac0efad6d0633faa84","geo":{"type":"Point","coordinates":[2.3431750632487143,48.8638514167998]},"meta":{"arrondissement":"PARIS 1ER ARRDT","adresse":"RUE JEAN JACQUES ROUSSEAU"}},{"taille":{"h":5,"p":25},"nom":"Lilas des indes","info":{"genre":"Lagerstroemia","espece":"indica","stade_developpement":"Jeune (arbre)"},"id":"b9b15eeac6fde00e4493928be9aad51f8c9b0ad0","geo":{"type":"Point","coordinates":[2.360951252635423,48.85640825541666]},"meta":{"arrondissement":"PARIS 4E ARRDT","adresse":"RUE DES ROSIERS"}},{"taille":{"h":5,"p":60},"nom":"Lilas des indes","info":{"genre":"Lagerstroemia","espece":"indica","stade_developpement":"Adulte"},"id":"359ee0e24f72f0c0123ef7376fb78d67e5b75f3b","geo":{"type":"Point","coordinates":[2.346929194716559,48.82228933960742]},"meta":{"arrondissement":"PARIS 13E ARRDT","adresse":"PLACE DE RUNGIS"}},{"taille":{"h":3,"p":30},"nom":"Lilas des indes","info":{"genre":"Lagerstroemia","espece":"indica","stade_developpement":"Jeune (arbre)"},"id":"dab2fb03e68c3b7d5f49c9eee9cd54bffebfd4f6","geo":{"type":"Point","coordinates":[2.254516897696081,48.83805748245223]},"meta":{"arrondissement":"PARIS 16E ARRDT","adresse":"JARDINS DE LA PORTE DE SAINT CLOUD / AVENUE EDOUARD VAILLANT"}},{"taille":{"h":5,"p":20},"nom":"Lilas des indes","info":{"genre":"Lagerstroemia","espece":"indica"},"id":"6fd5e9a356282a7b7af47b20ebe511b6bb8f1887","geo":{"type":"Point","coordinates":[2.382117920558302,48.84506209593198]},"meta":{"arrondissement":"PARIS 12E ARRDT","adresse":"RUE DE CHARENTON"}},{"taille":{"h":3,"p":20},"nom":"Lilas des indes","info":{"genre":"Lagerstroemia","espece":"indica","stade_developpement":"Jeune (arbre)"},"id":"67faa2a91545d0d8d6d68353e66621714cacd6d5","geo":{"type":"Point","coordinates":[2.307746269762964,48.82783265338048]},"meta":{"arrondissement":"PARIS 14E ARRDT","adresse":"ECOLE ELEMENTAIRE / 5 SQUARE ALAIN FOURNIER"}},{"taille":{"h":4,"p":25},"nom":"Lilas des indes","info":{"genre":"Lagerstroemia","espece":"indica","stade_developpement":"Jeune (arbre)"},"id":"e4f703dbf41e1b51664e92068f9088a837153363","geo":{"type":"Point","coordinates":[2.385090626560343,48.86847197257789]},"meta":{"arrondissement":"PARIS 20E ARRDT","adresse":"MARONITES (42)"}},{"taille":{"h":3,"p":30},"nom":"Lilas des indes","info":{"genre":"Lagerstroemia","espece":"indica","stade_developpement":"Jeune (arbre)Adulte"},"id":"347aa2eef8393826c31b7fe0eaafb1010ff8e28a","geo":{"type":"Point","coordinates":[2.396377962606708,48.84859614445544]},"meta":{"arrondissement":"PARIS 12E ARRDT","adresse":"JARDIN DE MARIANNE / 3 W PLACE DE LA NATION"}},{"taille":{"h":5,"p":20},"nom":"Lilas des indes","info":{"genre":"Lagerstroemia","espece":"indica","stade_developpement":"Jeune (arbre)"},"id":"5597ddcf7402a27446afc9a5bf2bbfdee52d2d49","geo":{"type":"Point","coordinates":[2.337273597348918,48.88848477407843]},"meta":{"arrondissement":"PARIS 18E ARRDT","adresse":"SQUARE SUZANNE BUISSON"}},{"taille":{"h":3,"p":18},"nom":"Lilas des indes","info":{"genre":"Lagerstroemia","espece":"indica","stade_developpement":"Jeune (arbre)"},"id":"eff945357fe66a74fbc3c780a1135a22f6f05b42","geo":{"type":"Point","coordinates":[2.2870907611318883,48.87957837281053]},"meta":{"arrondissement":"PARIS 17E ARRDT","adresse":"PROMENADE PEREIRE TERNES MAILLOT / 87 BIS AVENUE DES TERNES"}},{"taille":{"h":1,"p":10},"nom":"Lilas des indes","info":{"genre":"Lagerstroemia","espece":"indica"},"id":"f7edbc745494fdc32da04da1a903ace7d065e824","geo":{"type":"Point","coordinates":[2.421327046387598,48.90838220983984]},"meta":{"arrondissement":"SEINE-SAINT-DENIS","adresse":"PARC DES SPORTS INTERDEPARTEMENTAL DE BOBIGNY / 40 AVENUE DE LA DIVISION LECLERC - BOBIGNY"}},{"taille":{"h":5,"p":20},"nom":"Lilas des indes","info":{"genre":"Lagerstroemia","espece":"indica"},"id":"992c67f6307d408f98a36c3bbe83ba66b4213e5a","geo":{"type":"Point","coordinates":[2.305070666438984,48.85942226745329]},"meta":{"arrondissement":"PARIS 7E ARRDT","adresse":"RUE PIERRE VILLEY"}},{"taille":{"h":5,"p":20},"nom":"Lilas des indes","info":{"genre":"Lagerstroemia","espece":"indica","variete":"''Soir d''t''"},"id":"5a80daefe63295ac8b1709364cb5958e97d29a2b","geo":{"type":"Point","coordinates":[2.413430306972453,48.85555744956952]},"meta":{"arrondissement":"PARIS 20E ARRDT","adresse":"CENTRE SPORTIF DOCTEURS DEJERINE / 36 RUE DES DOCTEURS DEJERINE"}},{"taille":{"h":3,"p":20},"nom":"Lilas des indes","info":{"genre":"Lagerstroemia","espece":"indica","stade_developpement":"Jeune (arbre)"},"id":"a8b6c04a7d8f07ea98019e7abc3454897d716cd9","geo":{"type":"Point","coordinates":[2.338558478428106,48.88878695669572]},"meta":{"arrondissement":"PARIS 18E ARRDT","adresse":"CRECHE COLLECTIVE / 16 RUE DE L ABREUVOIR"}},{"taille":{"h":5,"p":20},"nom":"Lilas des indes","info":{"genre":"Lagerstroemia","espece":"indica"},"id":"885b80874612b3f73b8dc9d82af51a988c725a76","geo":{"type":"Point","coordinates":[2.394193515488065,48.878765119778855]},"meta":{"arrondissement":"PARIS 19E ARRDT","adresse":"RUE EUGENIE COTTON"}},{"taille":{"h":4,"p":35},"nom":"Lilas des indes","info":{"genre":"Lagerstroemia","espece":"indica","stade_developpement":"Adulte"},"id":"152614e236b583f096e8907c34dab010b5ba2f84","geo":{"type":"Point","coordinates":[2.305027343190515,48.85950553881319]},"meta":{"arrondissement":"PARIS 7E ARRDT","adresse":"RUE PIERRE VILLEY"}},{"taille":{"h":3,"p":20},"nom":"Lilas des indes","info":{"genre":"Lagerstroemia","espece":"indica"},"id":"d15359a66b97fd63dbde3e6ee0e1bacda1c106bf","geo":{"type":"Point","coordinates":[2.34690971667652,48.87207933506519]},"meta":{"arrondissement":"PARIS 9E ARRDT","adresse":"RUE BERGERE"}},{"taille":{"h":4,"p":25},"nom":"Lilas des indes","info":{"genre":"Lagerstroemia","espece":"indica","stade_developpement":"Jeune (arbre)"},"id":"a1bcb6902994a662f9ac872348285f89e2e52cee","geo":{"type":"Point","coordinates":[2.348767648860045,48.910136591038075]},"meta":{"arrondissement":"SEINE-SAINT-DENIS","adresse":"CIMETIERE DE SAINT-OUEN NOUV / DIV 28"}},{"taille":{"h":3,"p":25},"nom":"Lilas des indes","info":{"genre":"Lagerstroemia","espece":"indica","stade_developpement":"Jeune (arbre)"},"id":"1710ce335a8580fd836b357693fcd2a953b4a7ff","geo":{"type":"Point","coordinates":[2.331529838330715,48.87653517616379]},"meta":{"arrondissement":"PARIS 9E ARRDT","adresse":"SQUARE D''ESTIENNE D''ORVES"}},{"taille":{"h":3,"p":20},"nom":"Lilas des indes","info":{"genre":"Lagerstroemia","espece":"indica","stade_developpement":"Jeune (arbre)"},"id":"0285e907898be6291de050e561df23462ebb6d97","geo":{"type":"Point","coordinates":[2.285967965140298,48.87898270405692]},"meta":{"arrondissement":"PARIS 17E ARRDT","adresse":"PROMENADE PEREIRE TERNES MAILLOT / 87 BIS AVENUE DES TERNES"}},{"taille":{"h":3,"p":10},"nom":"Lilas des indes","info":{"genre":"Lagerstroemia","espece":"indica","stade_developpement":"Jeune (arbre)"},"id":"effed03ed315abb5c0eefa26194a1aa0c0bf7903","geo":{"type":"Point","coordinates":[2.324435378136651,48.89895193226866]},"meta":{"arrondissement":"PARIS 17E ARRDT","adresse":"SQUARE ANDRE BRECHET / 30 RUE ANDRE BRECHET"}},{"taille":{"h":4,"p":26},"nom":"Lilas des indes","info":{"genre":"Lagerstroemia","espece":"indica","stade_developpement":"Jeune (arbre)"},"id":"3ea0cef57faf51d59123fa428e53d461bc71a03d","geo":{"type":"Point","coordinates":[2.286790915219502,48.87922910923264]},"meta":{"arrondissement":"PARIS 17E ARRDT","adresse":"PROMENADE PEREIRE TERNES MAILLOT / 87 BIS AVENUE DES TERNES"}},{"taille":{"h":2,"p":22},"nom":"Lilas des indes","info":{"genre":"Lagerstroemia","espece":"indica","stade_developpement":"Adulte"},"id":"9bd8e88f36119a6a5acc4ddbeffa402276f50775","geo":{"type":"Point","coordinates":[2.446577089049571,48.83681573534527]},"meta":{"arrondissement":"BOIS DE VINCENNES","adresse":"PARC FLORAL DE PARIS / ROUTE DE LA PYRAMIDE"}},{"taille":{"h":2,"p":18},"nom":"Lilas des indes","info":{"genre":"Lagerstroemia","espece":"indica","stade_developpement":"Jeune (arbre)","variete":"''Rosea Nova''"},"id":"bd9066726704d74c650100a4f771bd50a7689eb1","geo":{"type":"Point","coordinates":[2.268204864718256,48.84928825779938]},"meta":{"arrondissement":"PARIS 16E ARRDT","adresse":"ECOLE MATERNELLE / 38 RUE DES PERCHAMPS"}},{"taille":{"h":3,"p":28},"nom":"Lilas des indes","info":{"genre":"Lagerstroemia","espece":"indica","stade_developpement":"Jeune (arbre)Adulte"},"id":"d77e24bac914c94a01158b8b5de695d615c54c08","geo":{"type":"Point","coordinates":[2.359716463317325,48.86727340148788]},"meta":{"arrondissement":"PARIS 3E ARRDT","adresse":"RUE NOTRE DAME DE NAZARETH"}},{"taille":{"h":0,"p":0},"nom":"Lilas des indes","info":{"genre":"Lagerstroemia","espece":"indica"},"id":"d9661dc522a6c5c520a3c83367d7c404929fd67b","geo":{"type":"Point","coordinates":[2.286307298979442,48.848899111713514]},"meta":{"arrondissement":"PARIS 15E ARRDT","adresse":"SQUARE PABLO CASALS / 41 RUE EMERIAU"}},{"taille":{"h":6,"p":25},"nom":"Lilas des indes","info":{"genre":"Lagerstroemia","espece":"indica","stade_developpement":"Jeune (arbre)Adulte"},"id":"807bd2b21481ba64f8564d14215534126ac65e28","geo":{"type":"Point","coordinates":[2.348382430799963,48.85797658024937]},"meta":{"arrondissement":"PARIS 4E ARRDT","adresse":"SQUARE DE LA TOUR SAINT JACQUES / 1 BIS RUE SAINT MARTIN"}},{"taille":{"h":4,"p":80},"nom":"Lilas des indes","info":{"genre":"Lagerstroemia","espece":"indica","stade_developpement":"Adulte"},"id":"669ae542ca24dc5e42bbc924c67a8a7cfc4eedd5","geo":{"type":"Point","coordinates":[2.349667012223389,48.84393959433458]},"meta":{"arrondissement":"PARIS 5E ARRDT","adresse":"ECOLE MATERNELLE / 29 RUE MOUFFETARD"}},{"taille":{"h":3,"p":20},"nom":"Lilas des indes","info":{"genre":"Lagerstroemia","espece":"indica","stade_developpement":"Jeune (arbre)"},"id":"0d769431840249f94bf6889a5bed52bf204cf157","geo":{"type":"Point","coordinates":[2.307922517846182,48.82791718075554]},"meta":{"arrondissement":"PARIS 14E ARRDT","adresse":"ECOLE ELEMENTAIRE / 5 SQUARE ALAIN FOURNIER"}},{"taille":{"h":5,"p":40},"nom":"Lilas des indes","info":{"genre":"Lagerstroemia","espece":"indica","stade_developpement":"Jeune (arbre)Adulte"},"id":"736e9baf92cd8ec804ee3b9511acee112822774e","geo":{"type":"Point","coordinates":[2.359400100651364,48.82298346632737]},"meta":{"arrondissement":"PARIS 13E ARRDT","adresse":"VILLA DELODER"}},{"taille":{"h":3,"p":17},"nom":"Lilas des indes","info":{"genre":"Lagerstroemia","espece":"indica","stade_developpement":"Jeune (arbre)"},"id":"f971e7fe0b7aba7270013327a285b8c08deeddaf","geo":{"type":"Point","coordinates":[2.287601599228014,48.879668038061034]},"meta":{"arrondissement":"PARIS 17E ARRDT","adresse":"PROMENADE PEREIRE TERNES MAILLOT / 87 BIS AVENUE DES TERNES"}},{"taille":{"h":5,"p":35},"nom":"Lilas des indes","info":{"genre":"Lagerstroemia","espece":"indica","stade_developpement":"Jeune (arbre)Adulte"},"id":"7d033eb6ae30de031752d9bae0904125c1225567","geo":{"type":"Point","coordinates":[2.366378031972585,48.884905671681985]},"meta":{"arrondissement":"PARIS 19E ARRDT","adresse":"PASSAGE GOIX"}},{"taille":{"h":5,"p":60},"nom":"Lilas des indes","info":{"genre":"Lagerstroemia","espece":"indica","stade_developpement":"Adulte"},"id":"83dbf0a4936fd080a17a31b46130385645c67cb4","geo":{"type":"Point","coordinates":[2.347008371791735,48.82239141084632]},"meta":{"arrondissement":"PARIS 13E ARRDT","adresse":"PLACE DE RUNGIS"}},{"taille":{"h":4,"p":25},"nom":"Lilas des indes","info":{"genre":"Lagerstroemia","espece":"indica","stade_developpement":"Jeune (arbre)"},"id":"e35b241f3230c89c890769140f16164efa68e10f","geo":{"type":"Point","coordinates":[2.282390540996948,48.860784902569144]},"meta":{"arrondissement":"PARIS 16E ARRDT","adresse":"AVENUE PAUL DOUMER"}},{"taille":{"h":4,"p":25},"nom":"Lilas des indes","info":{"genre":"Lagerstroemia","espece":"indica","stade_developpement":"Jeune (arbre)"},"id":"181ed76e12f7ab96079ea778081a502783d64b1b","geo":{"type":"Point","coordinates":[2.286835421884309,48.87944411856282]},"meta":{"arrondissement":"PARIS 17E ARRDT","adresse":"PROMENADE PEREIRE TERNES MAILLOT / 87 BIS AVENUE DES TERNES"}},{"taille":{"h":3,"p":40},"nom":"Lilas des indes","info":{"genre":"Lagerstroemia","espece":"indica","stade_developpement":"Jeune (arbre)Adulte"},"id":"47a60c5d2c2f42c75e8f750ce378e74c298eabdc","geo":{"type":"Point","coordinates":[2.359761333683268,48.83605397283708]},"meta":{"arrondissement":"PARIS 13E ARRDT","adresse":"PLACE LOUIS ARMSTRONG"}},{"taille":{"h":3,"p":20},"nom":"Lilas des indes","info":{"genre":"Lagerstroemia","espece":"indica","stade_developpement":"Jeune (arbre)"},"id":"9a0b69639b825bc2a9a7fc47990b8170cbfebfc3","geo":{"type":"Point","coordinates":[2.307906451636529,48.82790942507455]},"meta":{"arrondissement":"PARIS 14E ARRDT","adresse":"ECOLE ELEMENTAIRE / 5 SQUARE ALAIN FOURNIER"}},{"taille":{"h":5,"p":20},"nom":"Lilas des indes","info":{"genre":"Lagerstroemia","espece":"indica"},"id":"c669dca2b4071cda2ceb6ebb48a1250645d03964","geo":{"type":"Point","coordinates":[2.319326159745463,48.88044982087577]},"meta":{"arrondissement":"PARIS 8E ARRDT","adresse":"RUE BERNOUILLI"}},{"taille":{"h":5,"p":25},"nom":"Lilas des indes","info":{"genre":"Lagerstroemia","espece":"indica"},"id":"cb1071e68e69aa6fabf848fac9c51586dde06f7c","geo":{"type":"Point","coordinates":[2.279931201662349,48.85749489025455]},"meta":{"arrondissement":"PARIS 16E ARRDT","adresse":"RUE JEAN BOLOGNE"}},{"taille":{"h":5,"p":40},"nom":"Lilas des indes","info":{"genre":"Lagerstroemia","espece":"indica","stade_developpement":"Jeune (arbre)Adulte"},"id":"76b9d551c37547dfd9c53adef2b6ca4de5b971f6","geo":{"type":"Point","coordinates":[2.355327588101268,48.82553071355398]},"meta":{"arrondissement":"PARIS 13E ARRDT","adresse":"RUE DAMESME"}},{"taille":{"h":2,"p":10},"nom":"Lilas des indes","info":{"genre":"Lagerstroemia","espece":"indica","stade_developpement":"Jeune (arbre)"},"id":"78e3162f76ed3c87d906f4d3a6479e53cf691fe4","geo":{"type":"Point","coordinates":[2.311769475377318,48.869474041242235]},"meta":{"arrondissement":"PARIS 8E ARRDT","adresse":"JARDINS DES CHAMPS ELYSEES - SQUARE MARIGNY / 41 AVENUE GABRIEL"}},{"taille":{"h":5,"p":20},"nom":"Lilas des indes","info":{"genre":"Lagerstroemia","espece":"indica"},"id":"758265cd2b09e5e10b71b66a5cb55b1d6de86c86","geo":{"type":"Point","coordinates":[2.278914583839715,48.83834566758974]},"meta":{"arrondissement":"PARIS 15E ARRDT","adresse":"MAIL DE LA RUE MODIGLIANI / 3 RUE MODIGLIANI"}},{"taille":{"h":1,"p":10},"nom":"Lilas des indes","info":{"genre":"Lagerstroemia","espece":"indica"},"id":"fee32369abcc07e507fe20c8878b28e8006e5a17","geo":{"type":"Point","coordinates":[2.42134472567713,48.90843881641957]},"meta":{"arrondissement":"SEINE-SAINT-DENIS","adresse":"PARC DES SPORTS INTERDEPARTEMENTAL DE BOBIGNY / 40 AVENUE DE LA DIVISION LECLERC - BOBIGNY"}},{"taille":{"h":4,"p":25},"nom":"Lilas des indes","info":{"genre":"Lagerstroemia","espece":"indica","stade_developpement":"Jeune (arbre)"},"id":"4d732b1867f7edea694e5229fd1ebda10336f462","geo":{"type":"Point","coordinates":[2.385289955645079,48.868541580016185]},"meta":{"arrondissement":"PARIS 20E ARRDT","adresse":"MARONITES (42)"}},{"taille":{"h":3,"p":15},"nom":"Lilas des indes","info":{"genre":"Lagerstroemia","espece":"indica","stade_developpement":"Jeune (arbre)"},"id":"cb079e2dcb2f94975f5c9cb64ac66597480a3375","geo":{"type":"Point","coordinates":[2.297531270279324,48.82905619643088]},"meta":{"arrondissement":"PARIS 15E ARRDT","adresse":"SQUARE DU DOCTEUR CALMETTE / 2 RUE JEAN SICARD"}},{"taille":{"h":0,"p":10},"nom":"Lilas des indes","info":{"genre":"Lagerstroemia","espece":"indica","stade_developpement":"Jeune (arbre)"},"id":"bbc45eb0ce99da44d0d36c3469f69f01d327c72c","geo":{"type":"Point","coordinates":[2.41254647735345,48.87261684384362]},"meta":{"arrondissement":"PARIS 20E ARRDT","adresse":"SQUARE DE LA RUE LEON FRAPIE / 7 RUE DE NOISY LE SEC"}},{"taille":{"h":5,"p":20},"nom":"Lilas des indes","info":{"genre":"Lagerstroemia","espece":"indica"},"id":"eb623b52e484635ef35135d322603c6940e36f52","geo":{"type":"Point","coordinates":[2.32060106396054,48.871064558997894]},"meta":{"arrondissement":"PARIS 8E ARRDT","adresse":"SURENE (18) ELEM (18)"}},{"taille":{"h":5,"p":20},"nom":"Lilas des indes","info":{"genre":"Lagerstroemia","espece":"indica"},"id":"789c3bbdc8c3fc4aabf3cf2d7bcef8b283f08299","geo":{"type":"Point","coordinates":[2.3966723175563,48.87996532717904]},"meta":{"arrondissement":"PARIS 19E ARRDT","adresse":"RUE DES LILAS"}},{"taille":{"h":3,"p":20},"nom":"Lilas des indes","info":{"genre":"Lagerstroemia","espece":"indica","stade_developpement":"Jeune (arbre)"},"id":"c0cbbf6dabeab82c5362557b338565b7a2f33807","geo":{"type":"Point","coordinates":[2.307861261108783,48.82788838789877]},"meta":{"arrondissement":"PARIS 14E ARRDT","adresse":"ECOLE ELEMENTAIRE / 5 SQUARE ALAIN FOURNIER"}},{"taille":{"h":3,"p":40},"nom":"Lilas des indes","info":{"genre":"Lagerstroemia","espece":"indica","stade_developpement":"Jeune (arbre)Adulte"},"id":"f823b7fd43a14af6413a153ab03906ae8e12b048","geo":{"type":"Point","coordinates":[2.359591827286373,48.83629994164733]},"meta":{"arrondissement":"PARIS 13E ARRDT","adresse":"PLACE LOUIS ARMSTRONG"}},{"taille":{"h":1,"p":10},"nom":"Lilas des indes","info":{"genre":"Lagerstroemia","espece":"indica","stade_developpement":"Jeune (arbre)"},"id":"0938fdc2d453ed2b1a9e6700c55201309c77b7f6","geo":{"type":"Point","coordinates":[2.349906531407054,48.9097134565221]},"meta":{"arrondissement":"SEINE-SAINT-DENIS","adresse":"CIMETIERE DE SAINT-OUEN NOUV / DIV 27"}},{"taille":{"h":5,"p":55},"nom":"Lilas des indes","info":{"genre":"Lagerstroemia","espece":"indica","stade_developpement":"Adulte"},"id":"60efdebbee6b28eca88bced5de9cb44160085ba2","geo":{"type":"Point","coordinates":[2.34656404670859,48.822308902952344]},"meta":{"arrondissement":"PARIS 13E ARRDT","adresse":"PLACE DE RUNGIS"}},{"taille":{"h":3,"p":20},"nom":"Lilas des indes","info":{"genre":"Lagerstroemia","espece":"indica"},"id":"8ecf27bea9c337c81530c530308252fcd8e966fa","geo":{"type":"Point","coordinates":[2.347696105002517,48.910189629573125]},"meta":{"arrondissement":"SEINE-SAINT-DENIS","adresse":"CIMETIERE DE SAINT-OUEN NOUV / DIV 29"}},{"taille":{"h":2,"p":15},"nom":"Lilas des indes","info":{"genre":"Lagerstroemia","espece":"indica","stade_developpement":"Jeune (arbre)"},"id":"af5590bf9d4d5f9dff83317a4663bf0389fae901","geo":{"type":"Point","coordinates":[2.391360325819956,48.851939492826546]},"meta":{"arrondissement":"PARIS 11E ARRDT","adresse":"SQUARE DES JARDINIERS / 4 PASSAGE DUMAS"}},{"taille":{"h":3,"p":30},"nom":"Lilas des indes","info":{"genre":"Lagerstroemia","espece":"indica","stade_developpement":"Jeune (arbre)","variete":"''Rosea Nova''"},"id":"c64de53b9170466acd9014cb068f5847aa34315c","geo":{"type":"Point","coordinates":[2.331805138551999,48.8765719941366]},"meta":{"arrondissement":"PARIS 9E ARRDT","adresse":"SQUARE D''ESTIENNE D''ORVES"}},{"taille":{"h":4,"p":25},"nom":"Lilas des indes","info":{"genre":"Lagerstroemia","espece":"indica","stade_developpement":"Adulte"},"id":"80e64f40f0b7df9c53348db00f73e76aadf440d3","geo":{"type":"Point","coordinates":[2.304057451484228,48.859319680789895]},"meta":{"arrondissement":"PARIS 7E ARRDT","adresse":"PASSAGE LANDRIEU"}},{"taille":{"h":4,"p":25},"nom":"Lilas des indes","info":{"genre":"Lagerstroemia","espece":"indica","stade_developpement":"Jeune (arbre)"},"id":"f3686b9492857a9c0dc4dad5f20f9fcbf2d351fa","geo":{"type":"Point","coordinates":[2.352536628191899,48.820225825090894]},"meta":{"arrondissement":"PARIS 13E ARRDT","adresse":"AVENUE CAFFIERI"}},{"taille":{"h":5,"p":20},"nom":"Lilas des indes","info":{"genre":"Lagerstroemia","espece":"indica"},"id":"916f05288df60208faa472d812f22ce59b587b78","geo":{"type":"Point","coordinates":[2.296339062944877,48.850812360552595]},"meta":{"arrondissement":"PARIS 15E ARRDT","adresse":"PLACE DU CARDINAL AMETTE"}},{"taille":{"h":5,"p":35},"nom":"Lilas des indes","info":{"genre":"Lagerstroemia","espece":"indica","stade_developpement":"Adulte"},"id":"be254825668226f57a932e525296e6df1b31c06b","geo":{"type":"Point","coordinates":[2.30504719439018,48.85946628040547]},"meta":{"arrondissement":"PARIS 7E ARRDT","adresse":"RUE PIERRE VILLEY"}},{"taille":{"h":1,"p":10},"nom":"Lilas des indes","info":{"genre":"Lagerstroemia","espece":"indica"},"id":"1d2d88e4863bccd9de1a858c72ba7cac235ecad2","geo":{"type":"Point","coordinates":[2.421303152172756,48.90834713851035]},"meta":{"arrondissement":"SEINE-SAINT-DENIS","adresse":"PARC DES SPORTS INTERDEPARTEMENTAL DE BOBIGNY / 40 AVENUE DE LA DIVISION LECLERC - BOBIGNY"}},{"taille":{"h":5,"p":25},"nom":"Lilas des indes","info":{"genre":"Lagerstroemia","espece":"indica","stade_developpement":"Adulte"},"id":"65ef48287c25fbeabecaea806ca741a5936eef72","geo":{"type":"Point","coordinates":[2.303990640396083,48.85945408733861]},"meta":{"arrondissement":"PARIS 7E ARRDT","adresse":"PASSAGE LANDRIEU"}},{"taille":{"h":5,"p":40},"nom":"Lilas des indes","info":{"genre":"Lagerstroemia","espece":"indica","stade_developpement":"Jeune (arbre)Adulte"},"id":"c252ee90e746470a2a3a26f18f55c04fa5d147d1","geo":{"type":"Point","coordinates":[2.355338037781268,48.825440202728835]},"meta":{"arrondissement":"PARIS 13E ARRDT","adresse":"RUE DAMESME"}},{"taille":{"h":5,"p":20},"nom":"Lilas des indes","info":{"genre":"Lagerstroemia","espece":"indica","stade_developpement":"Jeune (arbre)"},"id":"7e0d1973512bd9383c4fef9c2fac300585e79e52","geo":{"type":"Point","coordinates":[2.356330928743599,48.83307023593405]},"meta":{"arrondissement":"PARIS 13E ARRDT","adresse":"BOULEVARD DE L HOPITAL"}},{"taille":{"h":5,"p":20},"nom":"Lilas des indes","info":{"genre":"Lagerstroemia","espece":"indica"},"id":"3e6f8f081333c6b8b863204c7e7f1bf8f889499a","geo":{"type":"Point","coordinates":[2.3942276049942333,48.87876847590594]},"meta":{"arrondissement":"PARIS 19E ARRDT","adresse":"RUE EUGENIE COTTON"}},{"taille":{"h":1,"p":10},"nom":"Lilas des indes","info":{"genre":"Lagerstroemia","espece":"indica"},"id":"97ac582b6a71b6261091f9a719db18349863dc3c","geo":{"type":"Point","coordinates":[2.4213164679877752,48.90839863396266]},"meta":{"arrondissement":"SEINE-SAINT-DENIS","adresse":"PARC DES SPORTS INTERDEPARTEMENTAL DE BOBIGNY / 40 AVENUE DE LA DIVISION LECLERC - BOBIGNY"}},{"taille":{"h":5,"p":45},"nom":"Lilas des indes","info":{"genre":"Lagerstroemia","espece":"indica","stade_developpement":"Jeune (arbre)Adulte"},"id":"d52c1b5819bb65d56f138fa3f264e28e04d45d91","geo":{"type":"Point","coordinates":[2.355310100481292,48.825667144534165]},"meta":{"arrondissement":"PARIS 13E ARRDT","adresse":"RUE DAMESME"}},{"taille":{"h":3,"p":35},"nom":"Lilas des indes","info":{"genre":"Lagerstroemia","espece":"indica","stade_developpement":"Jeune (arbre)Adulte"},"id":"11cab179a7813f5e644687eda59cbf483295b0fc","geo":{"type":"Point","coordinates":[2.346829634037142,48.822436878616145]},"meta":{"arrondissement":"PARIS 13E ARRDT","adresse":"PLACE DE RUNGIS"}},{"taille":{"h":0,"p":0},"nom":"Lilas des indes","info":{"genre":"Lagerstroemia","espece":"indica"},"id":"31e1e830f76c03f547a4bc5e0f5e55cd7b875843","geo":{"type":"Point","coordinates":[2.28415374374682,48.838760808179806]},"meta":{"arrondissement":"PARIS 15E ARRDT","adresse":"CIMETIERE DE VAUGIRARD / AVENUE DE GRENELLE / DIV 15"}},{"taille":{"h":4,"p":25},"nom":"Lilas des indes","info":{"genre":"Lagerstroemia","espece":"indica","stade_developpement":"Jeune (arbre)"},"id":"d8d78c6cdc038d285c1e0564ed68960f639bb6b5","geo":{"type":"Point","coordinates":[2.385220363196602,48.868517246218076]},"meta":{"arrondissement":"PARIS 20E ARRDT","adresse":"MARONITES (42)"}},{"taille":{"h":5,"p":20},"nom":"Lilas des indes","info":{"genre":"Lagerstroemia","espece":"indica","stade_developpement":"Jeune (arbre)"},"id":"fc91600b4c3e277feaefb8d0a1db0cdebe9d490e","geo":{"type":"Point","coordinates":[2.289738786464434,48.83645510267914]},"meta":{"arrondissement":"PARIS 15E ARRDT","adresse":"RUE DOMINIQUE PADO"}},{"taille":{"h":3,"p":24},"nom":"Lilas des indes","info":{"genre":"Lagerstroemia","espece":"indica","stade_developpement":"Jeune (arbre)"},"id":"6b1dca3dc65c5c8a0b190a9a0ff2e9584e782996","geo":{"type":"Point","coordinates":[2.30806572279108,48.87989051703718]},"meta":{"arrondissement":"PARIS 8E ARRDT","adresse":"PARC MONCEAU"}},{"taille":{"h":3,"p":20},"nom":"Lilas des indes","info":{"genre":"Lagerstroemia","espece":"indica"},"id":"2b9a62cc0884ea2033b235fb1eeb32229a36087d","geo":{"type":"Point","coordinates":[2.346800629277193,48.87209401060112]},"meta":{"arrondissement":"PARIS 9E ARRDT","adresse":"RUE BERGERE"}},{"taille":{"h":3,"p":20},"nom":"Lilas des indes","info":{"genre":"Lagerstroemia","espece":"indica","stade_developpement":"Jeune (arbre)"},"id":"7cd98f8a19652c214001efabbf82e5a0847721c7","geo":{"type":"Point","coordinates":[2.286622361818125,48.8791380451214]},"meta":{"arrondissement":"PARIS 17E ARRDT","adresse":"PROMENADE PEREIRE TERNES MAILLOT / 87 BIS AVENUE DES TERNES"}},{"taille":{"h":3,"p":17},"nom":"Lilas des indes","info":{"genre":"Lagerstroemia","espece":"indica","stade_developpement":"Jeune (arbre)"},"id":"5447113b7e9d52a345b3c90809fac01681f2cfbd","geo":{"type":"Point","coordinates":[2.287688592209188,48.87971398129705]},"meta":{"arrondissement":"PARIS 17E ARRDT","adresse":"PROMENADE PEREIRE TERNES MAILLOT / 87 BIS AVENUE DES TERNES"}},{"taille":{"h":5,"p":40},"nom":"Lilas des indes","info":{"genre":"Lagerstroemia","espece":"indica","stade_developpement":"Jeune (arbre)Adulte"},"id":"05ffd661da18c552f1ca2b9ecd01878dba0c2c55","geo":{"type":"Point","coordinates":[2.355382470272597,48.825084343266475]},"meta":{"arrondissement":"PARIS 13E ARRDT","adresse":"RUE DAMESME"}},{"taille":{"h":5,"p":20},"nom":"Lilas des indes","info":{"genre":"Lagerstroemia","espece":"indica"},"id":"2f836a203de12ae9efb67f6024a32e8d4627b04c","geo":{"type":"Point","coordinates":[2.285853860755627,48.84884344246276]},"meta":{"arrondissement":"PARIS 15E ARRDT","adresse":"SQUARE PABLO CASALS / 41 RUE EMERIAU"}},{"taille":{"h":0,"p":10},"nom":"Lilas des indes","info":{"genre":"Lagerstroemia","espece":"indica","stade_developpement":"Jeune (arbre)"},"id":"54acd15979fefe1f368add087a8803afee7f3cca","geo":{"type":"Point","coordinates":[2.412592047009862,48.872654929385625]},"meta":{"arrondissement":"PARIS 20E ARRDT","adresse":"SQUARE DE LA RUE LEON FRAPIE / 7 RUE DE NOISY LE SEC"}},{"taille":{"h":4,"p":24},"nom":"Lilas des indes","info":{"genre":"Lagerstroemia","espece":"indica","stade_developpement":"Jeune (arbre)"},"id":"de5428226f317f3109b81f7345e43f74b13a9364","geo":{"type":"Point","coordinates":[2.287546860297356,48.87982597793561]},"meta":{"arrondissement":"PARIS 17E ARRDT","adresse":"PROMENADE PEREIRE TERNES MAILLOT / 87 BIS AVENUE DES TERNES"}},{"taille":{"h":5,"p":20},"nom":"Lilas des indes","info":{"genre":"Lagerstroemia","espece":"indica"},"id":"37ebab4808aa77842f71cd11dbad8c4f8556c7ee","geo":{"type":"Point","coordinates":[2.396749449287508,48.88024697171227]},"meta":{"arrondissement":"PARIS 19E ARRDT","adresse":"RUE DES LILAS"}},{"taille":{"h":4,"p":30},"nom":"Lilas des indes","info":{"genre":"Lagerstroemia","espece":"indica"},"id":"d42f4a9ffe75ee7eb023d3f5bd0e2ec200edff11","geo":{"type":"Point","coordinates":[2.347912255378525,48.81926845130565]},"meta":{"arrondissement":"PARIS 13E ARRDT","adresse":"JARDIN JEAN-CLAUDE NICOLAS FORESTIER"}},{"taille":{"h":5,"p":40},"nom":"Lilas des indes","info":{"genre":"Lagerstroemia","espece":"indica","stade_developpement":"Jeune (arbre)Adulte"},"id":"426dffe5eb1e4392d072a31d9ffb99dbf7dc7847","geo":{"type":"Point","coordinates":[2.359609401477027,48.82280982031729]},"meta":{"arrondissement":"PARIS 13E ARRDT","adresse":"VILLA DELODER"}},{"taille":{"h":3,"p":14},"nom":"Lilas des indes","info":{"genre":"Lagerstroemia","espece":"indica","stade_developpement":"Jeune (arbre)"},"id":"06df6d60617933189cd5bb291d0940c631bad51c","geo":{"type":"Point","coordinates":[2.311337989096931,48.86806622458024]},"meta":{"arrondissement":"PARIS 8E ARRDT","adresse":"JARDINS DES CHAMPS ELYSEES - THEATRE DU ROND POINT / 2 BIS AVENUE FRANKLIN D ROOSEVELT"}},{"taille":{"h":5,"p":20},"nom":"Lilas des indes","info":{"genre":"Lagerstroemia","espece":"indica","stade_developpement":"Jeune (arbre)"},"id":"d8f290088bfad679f10a803c670a711cbef9bc57","geo":{"type":"Point","coordinates":[2.398378903693787,48.8657553312724]},"meta":{"arrondissement":"PARIS 20E ARRDT","adresse":"RUE DES GATINES"}},{"taille":{"h":5,"p":20},"nom":"Lilas des indes","info":{"genre":"Lagerstroemia","espece":"indica","stade_developpement":"Jeune (arbre)Adulte"},"id":"295ffa067f6895df7f60fc5cba9b29b076708665","geo":{"type":"Point","coordinates":[2.348543730245428,48.853041353869216]},"meta":{"arrondissement":"PARIS 4E ARRDT","adresse":"JARDIN DE LA PLACE JEAN-PAUL II / 2 PARVIS NOTRE-DAME - PLACE JEAN-PAUL II"}},{"taille":{"h":5,"p":20},"nom":"Lilas des indes","info":{"genre":"Lagerstroemia","espece":"indica"},"id":"938d0e8e3960b9f9b01a55c7666e2139feedc33d","geo":{"type":"Point","coordinates":[2.28592084692735,48.84887570674851]},"meta":{"arrondissement":"PARIS 15E ARRDT","adresse":"SQUARE PABLO CASALS / 41 RUE EMERIAU"}},{"taille":{"h":2,"p":15},"nom":"Lilas des indes","info":{"genre":"Lagerstroemia","espece":"indica","stade_developpement":"Jeune (arbre)"},"id":"afcd9b483752abaacf8023e5102e92fe702527eb","geo":{"type":"Point","coordinates":[2.391271154690956,48.85192223931387]},"meta":{"arrondissement":"PARIS 11E ARRDT","adresse":"SQUARE DES JARDINIERS / 4 PASSAGE DUMAS"}},{"taille":{"h":5,"p":20},"nom":"Lilas des indes","info":{"genre":"Lagerstroemia","espece":"indica","stade_developpement":"Jeune (arbre)"},"id":"371a8cf42b9d335e1f82274ced914d5f761d483d","geo":{"type":"Point","coordinates":[2.361172731210845,48.856295715137016]},"meta":{"arrondissement":"PARIS 4E ARRDT","adresse":"RUE DES ROSIERS"}},{"taille":{"h":3,"p":45},"nom":"Lilas des indes","info":{"genre":"Lagerstroemia","espece":"indica","stade_developpement":"Jeune (arbre)Adulte"},"id":"8855b3e11bff973d3da1b8870b34c6cf82ed7996","geo":{"type":"Point","coordinates":[2.3598201248794792,48.83632542865117]},"meta":{"arrondissement":"PARIS 13E ARRDT","adresse":"PLACE LOUIS ARMSTRONG"}},{"taille":{"h":4,"p":30},"nom":"Lilas des indes","info":{"genre":"Lagerstroemia","espece":"indica","stade_developpement":"Jeune (arbre)"},"id":"4da130ee007618c7ea466c5f1eea09bb75789491","geo":{"type":"Point","coordinates":[2.279086313687865,48.85138948837781]},"meta":{"arrondissement":"PARIS 16E ARRDT","adresse":"PARKING MAISON DE LA RADION / 7 AVENUE DU PRESIDENT KENNEDY"}},{"taille":{"h":3,"p":15},"nom":"Lilas des indes","info":{"genre":"Lagerstroemia","espece":"indica","stade_developpement":"Jeune (arbre)"},"id":"5aa47e07b68dedf81894563f4cff4f773d1e3b07","geo":{"type":"Point","coordinates":[2.281884776938025,48.87646384154207]},"meta":{"arrondissement":"PARIS 16E ARRDT","adresse":"SQUARE ALEXANDRE ET RENE PARODI / 1 PLACE DE LA PORTE MAILLOT"}},{"taille":{"h":4,"p":40},"nom":"Lilas des indes","info":{"genre":"Lagerstroemia","espece":"indica","stade_developpement":"Jeune (arbre)Adulte"},"id":"9008eddb0502b93624154c6db0553327267cee84","geo":{"type":"Point","coordinates":[2.359429012097995,48.82293730325802]},"meta":{"arrondissement":"PARIS 13E ARRDT","adresse":"VILLA DELODER"}},{"taille":{"h":2,"p":10},"nom":"Lilas des indes","info":{"genre":"Lagerstroemia","espece":"indica","stade_developpement":"Jeune (arbre)"},"id":"6a6dda4d53a4e0117b003d5a3b3888f9884547a9","geo":{"type":"Point","coordinates":[2.411696344656177,48.851762761983295]},"meta":{"arrondissement":"PARIS 20E ARRDT","adresse":"SQUARE DE LA RUE PAGANINI / 48 BOULEVARD DAVOUT"}},{"taille":{"h":1,"p":10},"nom":"Lilas des indes","info":{"genre":"Lagerstroemia","espece":"indica"},"id":"901d9a8b0ebafec58d1e043262775e5d42394a47","geo":{"type":"Point","coordinates":[2.4213661164202582,48.90844137484612]},"meta":{"arrondissement":"SEINE-SAINT-DENIS","adresse":"PARC DES SPORTS INTERDEPARTEMENTAL DE BOBIGNY / 40 AVENUE DE LA DIVISION LECLERC - BOBIGNY"}},{"taille":{"h":5,"p":20},"nom":"Lilas des indes","info":{"genre":"Lagerstroemia","espece":"indica"},"id":"970b2daa0e0fe79e47a39936ad63a50abb9d81d7","geo":{"type":"Point","coordinates":[2.402752507580294,48.83962075423658]},"meta":{"arrondissement":"PARIS 12E ARRDT","adresse":"TERRAIN EDUCATION PHYSIQUE LOUIS BRAILLE / 24 RUE LOUIS BRAILLE"}},{"taille":{"h":3,"p":18},"nom":"Lilas des indes","info":{"genre":"Lagerstroemia","espece":"indica","stade_developpement":"Jeune (arbre)"},"id":"907e01baa8bc5d5d647f0138e1d24bca8877377b","geo":{"type":"Point","coordinates":[2.28738063044084,48.87973527053714]},"meta":{"arrondissement":"PARIS 17E ARRDT","adresse":"PROMENADE PEREIRE TERNES MAILLOT / 87 BIS AVENUE DES TERNES"}},{"taille":{"h":5,"p":20},