[{"taille":{"h":2,"p":20},"nom":"Néflier commun","info":{"genre":"Mespilus","espece":"germanica"},"id":"d77d5cef5dddd0dc418e17dcc32cce3394f57647","geo":{"type":"Point","coordinates":[2.269700839603611,48.82954941975884]},"meta":{"arrondissement":"PARIS 15E ARRDT","adresse":"PARC OMNISPORT SUZANNE LENGLEN / 7 BOULEVARD DES FRERES VOISIN"}},{"taille":{"h":0,"p":0},"nom":"Néflier commun","info":{"genre":"Mespilus","espece":"germanica"},"id":"86a5e295b86874f1bca160a5519c9dfa1d53f6ae","geo":{"type":"Point","coordinates":[2.374595438717588,48.83184463921694]},"meta":{"arrondissement":"PARIS 13E ARRDT","adresse":"JARDINIERES DE LA RUE GERMAINE RICHIER / 2 RUE GERMAINE RICHIER"}},{"taille":{"h":3,"p":10},"nom":"Néflier commun","info":{"genre":"Mespilus","espece":"germanica","stade_developpement":"Jeune (arbre)"},"id":"5adff9d616a402818d87c44738579e537b398696","geo":{"type":"Point","coordinates":[2.422099575232367,48.90791346358205]},"meta":{"arrondissement":"SEINE-SAINT-DENIS","adresse":"PARC DES SPORTS INTERDEPARTEMENTAL DE BOBIGNY / 40 AVENUE DE LA DIVISION LECLERC - BOBIGNY"}},{"taille":{"h":0,"p":0},"nom":"Néflier commun","info":{"genre":"Mespilus","espece":"germanica"},"id":"5a5b7e92cded55870c4eab329ac85cb0b3eb620c","geo":{"type":"Point","coordinates":[2.374916521689693,48.83197697806377]},"meta":{"arrondissement":"PARIS 13E ARRDT","adresse":"JARDINIERES DE LA RUE GERMAINE RICHIER / 2 RUE GERMAINE RICHIER"}},{"taille":{"h":4,"p":30},"nom":"Néflier commun","info":{"genre":"Mespilus","espece":"germanica","stade_developpement":"Jeune (arbre)"},"id":"3e3004f4b981ec4ac405403e0fe1a10bf20fc07c","geo":{"type":"Point","coordinates":[2.254419066483839,48.84644827073735]},"meta":{"arrondissement":"PARIS 16E ARRDT","adresse":"TALUS N°11-02"}},{"taille":{"h":1,"p":10},"nom":"Néflier commun","info":{"genre":"Mespilus","espece":"germanica","stade_developpement":"Jeune (arbre)"},"id":"79e93eb91ab4b990b176e176af58e8f226246d45","geo":{"type":"Point","coordinates":[2.291413313082549,48.86260948446734]},"meta":{"arrondissement":"PARIS 16E ARRDT","adresse":"JARDINS DU TROCADERO / 3 PLACE DE VARSOVIE"}},{"taille":{"h":3,"p":10},"nom":"Néflier commun","info":{"genre":"Mespilus","espece":"germanica","stade_developpement":"Jeune (arbre)"},"id":"b56024fff7a7d19839cd01c80dbacca3cf060da2","geo":{"type":"Point","coordinates":[2.422128727705638,48.9078902852946]},"meta":{"arrondissement":"SEINE-SAINT-DENIS","adresse":"PARC DES SPORTS INTERDEPARTEMENTAL DE BOBIGNY / 40 AVENUE DE LA DIVISION LECLERC - BOBIGNY"}},{"taille":{"h":3,"p":10},"nom":"Néflier commun","info":{"genre":"Mespilus","espece":"germanica","stade_developpement":"Jeune (arbre)"},"id":"2ad394ca404c26d3f1484922bea63bbde80382b8","geo":{"type":"Point","coordinates":[2.422032228831251,48.907900512439156]},"meta":{"arrondissement":"SEINE-SAINT-DENIS","adresse":"PARC DES SPORTS INTERDEPARTEMENTAL DE BOBIGNY / 40 AVENUE DE LA DIVISION LECLERC - BOBIGNY"}},{"taille":{"h":0,"p":0},"nom":"Néflier commun","info":{"genre":"Mespilus","espece":"germanica"},"id":"e0f63b42c9214b70a2c20874e193ed59c5fb88f2","geo":{"type":"Point","coordinates":[2.3744151699638403,48.83179567014079]},"meta":{"arrondissement":"PARIS 13E ARRDT","adresse":"JARDINIERES DE LA RUE GERMAINE RICHIER / 2 RUE GERMAINE RICHIER"}},{"taille":{"h":0,"p":0},"nom":"Néflier commun","info":{"genre":"Mespilus","espece":"germanica"},"id":"145ef18b1a738204cfc0d2ff689b02f11c57024d","geo":{"type":"Point","coordinates":[2.374543085326282,48.831871967084986]},"meta":{"arrondissement":"PARIS 13E ARRDT","adresse":"JARDINIERES DE LA RUE GERMAINE RICHIER / 2 RUE GERMAINE RICHIER"}},{"taille":{"h":0,"p":0},"nom":"Néflier commun","info":{"genre":"Mespilus","espece":"germanica"},"id":"b1621c78722f4861b36634fd0a9e28c598cc6a0d","geo":{"type":"Point","coordinates":[2.3747849628911,48.83197609256104]},"meta":{"arrondissement":"PARIS 13E ARRDT","adresse":"JARDINIERES DE LA RUE GERMAINE RICHIER / 2 RUE GERMAINE RICHIER"}},{"taille":{"h":3,"p":20},"nom":"Néflier commun","info":{"genre":"Mespilus","espece":"germanica","stade_developpement":"Jeune (arbre)"},"id":"cd8370f41a0010fd658aa1ac5d62d9e36ed53630","geo":{"type":"Point","coordinates":[2.29982606521303,48.89173007735982]},"meta":{"arrondissement":"PARIS 17E ARRDT","adresse":"PROMENADE BERNARD LAFAY C2"}},{"taille":{"h":3,"p":40},"nom":"Néflier commun","info":{"genre":"Mespilus","espece":"germanica","stade_developpement":"Jeune (arbre)"},"id":"fb49eed9e2eab469c16b83ead6c3b2a5ad3baaeb","geo":{"type":"Point","coordinates":[2.339118389764071,48.89982950945357]},"meta":{"arrondissement":"PARIS 18E ARRDT","adresse":"SQUARE DE LA RUE RENE BINET / 42 RUE RENE BINET"}},{"taille":{"h":3,"p":20},"nom":"Néflier commun","info":{"genre":"Mespilus","espece":"germanica","stade_developpement":"Jeune (arbre)"},"id":"afba0a72f2e0c88bd5a95e3cb5dcd33e9cd610a7","geo":{"type":"Point","coordinates":[2.346162580866796,48.9087069877198]},"meta":{"arrondissement":"SEINE-SAINT-DENIS","adresse":"CIMETIERE DE SAINT-OUEN NOUV / DIV 0"}},{"taille":{"h":4,"p":30},"nom":"Néflier commun","info":{"genre":"Mespilus","espece":"germanica","stade_developpement":"Jeune (arbre)"},"id":"f8367f85855d4ef89ba5ca471be65ed03a1ff674","geo":{"type":"Point","coordinates":[2.254431302476885,48.84647214430085]},"meta":{"arrondissement":"PARIS 16E ARRDT","adresse":"TALUS N°11-02"}},{"taille":{"h":3,"p":50},"nom":"Néflier commun","info":{"genre":"Mespilus","espece":"germanica"},"id":"8b5d290d71129d636158f99459b5660654ad8f48","geo":{"type":"Point","coordinates":[2.312012041160222,48.86691022321229]},"meta":{"arrondissement":"PARIS 8E ARRDT","adresse":"JARDINS DES CHAMPS ELYSEES - SQUARE JEAN PERRIN / 17 AVENUE DU GENERAL EISSENHOWER"}},{"taille":{"h":1,"p":20},"nom":"Néflier commun","info":{"genre":"Mespilus","espece":"germanica","stade_developpement":"Jeune (arbre)"},"id":"b76125584a158dc980309b78d1b29c01d731746e","geo":{"type":"Point","coordinates":[2.396030983869874,48.83348049042474]},"meta":{"arrondissement":"PARIS 12E ARRDT","adresse":"ECOLE ELEMENTAIRE / 315 RUE CHARENTON"}},{"taille":{"h":3,"p":49},"nom":"Néflier commun","info":{"genre":"Mespilus","espece":"germanica","stade_developpement":"Jeune (arbre)Adulte"},"id":"8a04e2c86344a310df6d9e8cbd2385d8dbc05beb","geo":{"type":"Point","coordinates":[2.252302787666036,48.84616486566803]},"meta":{"arrondissement":"PARIS 16E ARRDT","adresse":"JARDIN DES SERRES D AUTEUIL / 1 AVENUE GORDON BENNETT"}},{"taille":{"h":0,"p":0},"nom":"Néflier commun","info":{"genre":"Mespilus","espece":"germanica"},"id":"f032cd830968e8a132d18b79cf54b4ebd2cf4db6","geo":{"type":"Point","coordinates":[2.374465159667695,48.83184498319435]},"meta":{"arrondissement":"PARIS 13E ARRDT","adresse":"JARDINIERES DE LA RUE GERMAINE RICHIER / 2 RUE GERMAINE RICHIER"}},{"taille":{"h":0,"p":0},"nom":"Néflier commun","info":{"genre":"Mespilus","espece":"germanica"},"id":"d04625a008f3127d1bb4393b4d31268336517a94","geo":{"type":"Point","coordinates":[2.374957816540898,48.832005047332565]},"meta":{"arrondissement":"PARIS 13E ARRDT","adresse":"JARDINIERES DE LA RUE GERMAINE RICHIER / 2 RUE GERMAINE RICHIER"}},{"taille":{"h":4,"p":20},"nom":"Néflier commun","info":{"genre":"Mespilus","espece":"germanica","stade_developpement":"Jeune (arbre)"},"id":"25f497211b4abc475c57db2c296ed266155a6ff3","geo":{"type":"Point","coordinates":[2.392616285057684,48.86016933280025]},"meta":{"arrondissement":"PARIS 20E ARRDT","adresse":"CIMETIERE DU PERE LACHAISE / DIV 10"}},{"taille":{"h":4,"p":30},"nom":"Néflier commun","info":{"genre":"Mespilus","espece":"germanica","stade_developpement":"Jeune (arbre)"},"id":"4d247f62974e44f5c08f071a48a5c4e8cd518c4d","geo":{"type":"Point","coordinates":[2.254445488147792,48.84649213574408]},"meta":{"arrondissement":"PARIS 16E ARRDT","adresse":"TALUS N°11-02"}},{"taille":{"h":4,"p":45},"nom":"Néflier commun","info":{"genre":"Mespilus","espece":"germanica","stade_developpement":"Jeune (arbre)Adulte"},"id":"a6a7913271b58bf69b5cf3a5e0aa83c1b95466da","geo":{"type":"Point","coordinates":[2.349320948893729,48.857834238627625]},"meta":{"arrondissement":"PARIS 4E ARRDT","adresse":"SQUARE DE LA TOUR SAINT JACQUES / 1 BIS RUE SAINT MARTIN"}},{"taille":{"h":3,"p":20},"nom":"Néflier commun","info":{"genre":"Mespilus","espece":"germanica","stade_developpement":"Jeune (arbre)"},"id":"ec3dd17e49a80840d1712f407d855feb2360ccd3","geo":{"type":"Point","coordinates":[2.279529017202986,48.875686018825874]},"meta":{"arrondissement":"PARIS 16E ARRDT","adresse":"SQUARE ALEXANDRE ET RENE PARODI / 1 PLACE DE LA PORTE MAILLOT"}},{"taille":{"h":3,"p":10},"nom":"Néflier commun","info":{"genre":"Mespilus","espece":"germanica","stade_developpement":"Jeune (arbre)"},"id":"d7dfcb12839aa991de2555622a23f5f340fd8beb","geo":{"type":"Point","coordinates":[2.421948640986117,48.90794958875217]},"meta":{"arrondissement":"SEINE-SAINT-DENIS","adresse":"PARC DES SPORTS INTERDEPARTEMENTAL DE BOBIGNY / 40 AVENUE DE LA DIVISION LECLERC - BOBIGNY"}},{"taille":{"h":0,"p":0},"nom":"Néflier commun","info":{"genre":"Mespilus","espece":"germanica"},"id":"70373313cf954aedeb301eafdbfda554a808bef2","geo":{"type":"Point","coordinates":[2.374838121392016,48.831949785085015]},"meta":{"arrondissement":"PARIS 13E ARRDT","adresse":"JARDINIERES DE LA RUE GERMAINE RICHIER / 2 RUE GERMAINE RICHIER"}},{"taille":{"h":4,"p":30},"nom":"Néflier commun","info":{"genre":"Mespilus","espece":"germanica","stade_developpement":"Jeune (arbre)"},"id":"7dd06d13062f79323f3ffa6a397f5ac6ca169dae","geo":{"type":"Point","coordinates":[2.254407286306805,48.846493498547964]},"meta":{"arrondissement":"PARIS 16E ARRDT","adresse":"TALUS N°11-02"}},{"taille":{"h":4,"p":30},"nom":"Néflier commun","info":{"genre":"Mespilus","espece":"germanica","stade_developpement":"Jeune (arbre)"},"id":"cc88a36505bb08c5f54f3044bc6677a619203e3a","geo":{"type":"Point","coordinates":[2.254375237008044,48.846499144707444]},"meta":{"arrondissement":"PARIS 16E ARRDT","adresse":"TALUS N°11-02"}},{"taille":{"h":4,"p":36},"nom":"Néflier commun","info":{"genre":"Mespilus","espece":"germanica","stade_developpement":"Jeune (arbre)"},"id":"7df50f1f3c34e8b875e22a443d476886cd4a13aa","geo":{"type":"Point","coordinates":[2.27494101547936,48.87200488203836]},"meta":{"arrondissement":"PARIS 16E ARRDT","adresse":"JARDIN DE LA PLACE DU MARECHAL DELATTRE DE TASSIGNY / 5 W PLACE DU MARECHAL DE LATTRE DE TASSIGNY"}},{"taille":{"h":3,"p":10},"nom":"Néflier commun","info":{"genre":"Mespilus","espece":"germanica","stade_developpement":"Jeune (arbre)"},"id":"239e573fcdfe500d9ae137d7d45177755433912c","geo":{"type":"Point","coordinates":[2.421977027822423,48.90792902377917]},"meta":{"arrondissement":"SEINE-SAINT-DENIS","adresse":"PARC DES SPORTS INTERDEPARTEMENTAL DE BOBIGNY / 40 AVENUE DE LA DIVISION LECLERC - BOBIGNY"}},{"taille":{"h":1,"p":10},"nom":"Néflier commun","info":{"genre":"Mespilus","espece":"germanica","stade_developpement":"Jeune (arbre)"},"id":"46f9767306afc36ee7b38d710b1ff102595975b0","geo":{"type":"Point","coordinates":[2.338878240022426,48.88889889009289]},"meta":{"arrondissement":"PARIS 18E ARRDT","adresse":"CIMETIERE ST VINCENT / AVENUE PRINCIPALE / DIV 5"}},{"taille":{"h":0,"p":0},"nom":"Néflier commun","info":{"genre":"Mespilus","espece":"germanica"},"id":"8617c1a73fb2b45c7ba41908fe0e846942309139","geo":{"type":"Point","coordinates":[2.454681852277163,48.82179773507009]},"meta":{"arrondissement":"BOIS DE VINCENNES","adresse":"ARBORETUM DE L ECOLE DU BREUIL - ROUTE DE LA FERME / ROUTE DE LA PYRAMIDE"}},{"taille":{"h":4,"p":30},"nom":"Néflier commun","info":{"genre":"Mespilus","espece":"germanica","stade_developpement":"Jeune (arbre)"},"id":"343f2053d2f3a092e1928e4b4e4f613e97c279dd","geo":{"type":"Point","coordinates":[2.254396158316663,48.8464731394276]},"meta":{"arrondissement":"PARIS 16E ARRDT","adresse":"TALUS N°11-02"}},{"taille":{"h":2,"p":30},"nom":"Néflier commun","info":{"genre":"Mespilus","espece":"germanica","stade_developpement":"Jeune (arbre)"},"id":"fa10fb411684a492ac6e4b1f25a013929a210d5d","geo":{"type":"Point","coordinates":[2.446666855784276,48.83608951333424]},"meta":{"arrondissement":"BOIS DE VINCENNES","adresse":"PARC FLORAL DE PARIS / ROUTE DE LA PYRAMIDE"}},{"taille":{"h":5,"p":20},"nom":"Néflier commun","info":{"genre":"Mespilus","espece":"germanica"},"id":"1b264cd5720312e1d6347710cc74147c31b1f9db","geo":{"type":"Point","coordinates":[2.401055654093234,48.90599608224394]},"meta":{"arrondissement":"SEINE-SAINT-DENIS","adresse":"CIMETIERE DE PANTIN / DIV 11"}},{"taille":{"h":0,"p":0},"nom":"Néflier commun","info":{"genre":"Mespilus","espece":"germanica"},"id":"daea4c543bb8990eb3df0144038dc65738b5e71b","geo":{"type":"Point","coordinates":[2.444942913183191,48.838923139155156]},"meta":{"arrondissement":"BOIS DE VINCENNES","adresse":"PARC FLORAL DE PARIS / ROUTE DE LA PYRAMIDE"}},{"taille":{"h":3,"p":20},"nom":"Néflier commun","info":{"genre":"Mespilus","espece":"germanica","stade_developpement":"Jeune (arbre)"},"id":"5786429dcdc90bbf1adad70a2251bb2c15a7e924","geo":{"type":"Point","coordinates":[2.392622491142683,48.860159606409674]},"meta":{"arrondissement":"PARIS 20E ARRDT","adresse":"CIMETIERE DU PERE LACHAISE / DIV 10"}},{"taille":{"h":5,"p":20},"nom":"Néflier commun","info":{"genre":"Mespilus","espece":"germanica"},"id":"511d6b3f6199f3418b78103f9365feae030c1bf3","geo":{"type":"Point","coordinates":[2.269147413680401,48.82893266987437]},"meta":{"arrondissement":"PARIS 15E ARRDT","adresse":"PARC OMNISPORT SUZANNE LENGLEN / 7 BOULEVARD DES FRERES VOISIN"}},{"taille":{"h":4,"p":18},"nom":"Néflier commun","info":{"genre":"Mespilus","espece":"germanica"},"id":"d8569fdf71ebb36da7458eaa1fe4b9649b302747","geo":{"type":"Point","coordinates":[2.320805267935984,48.851052218214306]},"meta":{"arrondissement":"PARIS 7E ARRDT","adresse":"JARDIN CATHERINE LABOURE / 29 RUE DE BABYLONE"}},{"taille":{"h":3,"p":60},"nom":"Néflier commun","info":{"genre":"Mespilus","espece":"germanica","stade_developpement":"Jeune (arbre)Adulte"},"id":"95f0faf24fa43f61d749cac92ebdd2aac73067b1","geo":{"type":"Point","coordinates":[2.349261456799036,48.8577424691668]},"meta":{"arrondissement":"PARIS 4E ARRDT","adresse":"SQUARE DE LA TOUR SAINT JACQUES / 1 BIS RUE SAINT MARTIN"}},{"taille":{"h":0,"p":0},"nom":"Néflier commun","info":{"genre":"Mespilus","espece":"germanica"},"id":"9d35355495826c104143967eed3b46507b8d671c","geo":{"type":"Point","coordinates":[2.374856104617915,48.83200308574846]},"meta":{"arrondissement":"PARIS 13E ARRDT","adresse":"JARDINIERES DE LA RUE GERMAINE RICHIER / 2 RUE GERMAINE RICHIER"}},{"taille":{"h":0,"p":0},"nom":"Néflier commun","info":{"genre":"Mespilus","espece":"germanica"},"id":"07eadfdf9d376fffe03f59428d36ac28b384da6d","geo":{"type":"Point","coordinates":[2.374526252536048,48.83181818672336]},"meta":{"arrondissement":"PARIS 13E ARRDT","adresse":"JARDINIERES DE LA RUE GERMAINE RICHIER / 2 RUE GERMAINE RICHIER"}},{"taille":{"h":4,"p":50},"nom":"Néflier commun","info":{"genre":"Mespilus","espece":"germanica","stade_developpement":"Adulte"},"id":"58432aa3328a5ea19d51520c9728e8b8783938e0","geo":{"type":"Point","coordinates":[2.35510712438079,48.8756531287959]},"meta":{"arrondissement":"PARIS 10E ARRDT","adresse":"SQUARE ALBAN SATRAGNE / 11 SQUARE ALBAN SATRAGNE"}},{"taille":{"h":4,"p":25},"nom":"Néflier commun","info":{"genre":"Mespilus","espece":"germanica","stade_developpement":"Jeune (arbre)"},"id":"7d0526fc3ed2dbbfb55328776a82e6cab96c1eb2","geo":{"type":"Point","coordinates":[2.396929665970438,48.86862048889443]},"meta":{"arrondissement":"PARIS 20E ARRDT","adresse":"JARDIN PARTAGE DU PASSAGE DES SOUPIRS / 18 PASSAGE DES SOUPIRS"}}]