[{"taille":{"h":8,"p":70},"nom":"Mûrier","info":{"genre":"Morus","espece":"alba","stade_developpement":"Jeune (arbre)Adulte","variete":"''Macrophylla''"},"id":"956175c531c687fbb1b0a6f48e632c4223dde133","geo":{"type":"Point","coordinates":[2.318967353447845,48.85132335122297]},"meta":{"arrondissement":"PARIS 7E ARRDT","adresse":"VANEAU (48) MAT"}},{"taille":{"h":0,"p":25},"nom":"Mûrier","info":{"genre":"Morus","espece":"nigra"},"id":"f983c81bd7d194718e5c0325f9b8e1df4a45a45e","geo":{"type":"Point","coordinates":[2.4085895702403812,48.87855892351379]},"meta":{"arrondissement":"PARIS 19E ARRDT","adresse":"JARDIN SERGE GAINSBOURG / 11 AVENUE DE LAPORTE DES LILAS"}},{"taille":{"h":10,"p":105},"nom":"Mûrier","info":{"genre":"Morus","espece":"alba","stade_developpement":"Adulte"},"id":"c6cf9e86c92435d18ae5582ea328fe1d1e7cbc91","geo":{"type":"Point","coordinates":[2.276947900444524,48.83927423406831]},"meta":{"arrondissement":"PARIS 15E ARRDT","adresse":"RUE DE LA MONTAGNE DE LA FAGE"}},{"taille":{"h":7,"p":90},"nom":"Mûrier","info":{"genre":"Morus","espece":"alba"},"id":"188f5e341fd939ebcdbda4c3584a23ad4106cccd","geo":{"type":"Point","coordinates":[2.29966763758121,48.831079230568406]},"meta":{"arrondissement":"PARIS 15E ARRDT","adresse":"PARC GEORGES BRASSENS / 2 PLACE JACQUES MARETTE"}},{"taille":{"h":5,"p":79},"nom":"Mûrier","info":{"genre":"Morus","espece":"alba","stade_developpement":"Jeune (arbre)Adulte"},"id":"5261fdadda3fa3db49ec725f0bfee4eab0d01027","geo":{"type":"Point","coordinates":[2.334926954844876,48.88575299557905]},"meta":{"arrondissement":"PARIS 18E ARRDT","adresse":"RUE DES ABBESSES"}},{"taille":{"h":5,"p":40},"nom":"Mûrier","info":{"genre":"Morus","espece":"alba","stade_developpement":"Jeune (arbre)Adulte"},"id":"94c9214a6824f09659a74cf2187a9f1aa9ff3db1","geo":{"type":"Point","coordinates":[2.413647509965158,48.87037776644176]},"meta":{"arrondissement":"PARIS 20E ARRDT","adresse":"TALUS N°29-00"}},{"taille":{"h":13,"p":99},"nom":"Mûrier","info":{"genre":"Morus","espece":"alba","stade_developpement":"Adulte"},"id":"2eedb135b0fa4bd902949373f0e46a2ffa314625","geo":{"type":"Point","coordinates":[2.37069441008627,48.87063045680539]},"meta":{"arrondissement":"PARIS 10E ARRDT","adresse":"AVENUE PARMENTIER"}},{"taille":{"h":0,"p":110},"nom":"Mûrier","info":{"genre":"Morus","espece":"alba"},"id":"999fe4426a7690c0c423c86ad3ec3cc9ef5984ca","geo":{"type":"Point","coordinates":[2.269731920128862,48.82861432468881]},"meta":{"arrondissement":"PARIS 15E ARRDT","adresse":"PARC OMNISPORT SUZANNE LENGLEN / 7 BOULEVARD DES FRERES VOISIN"}},{"taille":{"h":8,"p":140},"nom":"Mûrier","info":{"genre":"Morus","espece":"n. sp.","stade_developpement":"Adulte"},"id":"e4a2bc2de589b856fae4cf188a6a95467005a890","geo":{"type":"Point","coordinates":[2.461515842075717,48.821719251619264]},"meta":{"arrondissement":"BOIS DE VINCENNES","adresse":"ECOLE DU BREUIL / ROUTE DE LA FERME"}},{"taille":{"h":9,"p":80},"nom":"Mûrier","info":{"genre":"Morus","espece":"alba","stade_developpement":"Adulte"},"id":"f680b09bc3bb4d74e38a03924a1bc8519c71de28","geo":{"type":"Point","coordinates":[2.370165663458438,48.873651462198495]},"meta":{"arrondissement":"PARIS 10E ARRDT","adresse":"AVENUE CLAUDE VELLEFAUX"}},{"taille":{"h":0,"p":0},"nom":"Mûrier","info":{"genre":"Morus","espece":"alba"},"id":"730629314f8b436733f4c70c069d07e2e31debee","geo":{"type":"Point","coordinates":[2.312451709558808,48.8374340782419]},"meta":{"arrondissement":"PARIS 15E ARRDT","adresse":"SQUARE PIERRE-ADRIEN DALPAYRAT"}},{"taille":{"h":12,"p":96},"nom":"Mûrier","info":{"genre":"Morus","espece":"alba","stade_developpement":"Adulte"},"id":"5db13dbbbefe8a7dfb4c972b14ff214c782e077a","geo":{"type":"Point","coordinates":[2.37003641773924,48.87282951743579]},"meta":{"arrondissement":"PARIS 10E ARRDT","adresse":"AVENUE CLAUDE VELLEFAUX"}},{"taille":{"h":9,"p":86},"nom":"Mûrier","info":{"genre":"Morus","espece":"alba","stade_developpement":"Adulte"},"id":"0f1af34239d510c163c8f2c398610637962f90a5","geo":{"type":"Point","coordinates":[2.370263413133878,48.87335637380784]},"meta":{"arrondissement":"PARIS 10E ARRDT","adresse":"AVENUE CLAUDE VELLEFAUX"}},{"taille":{"h":12,"p":97},"nom":"Mûrier","info":{"genre":"Morus","espece":"alba","stade_developpement":"Adulte"},"id":"7e109712b7532dd1dd4c331ede5a1c9bcb4cad0d","geo":{"type":"Point","coordinates":[2.369620340070425,48.872388711541596]},"meta":{"arrondissement":"PARIS 10E ARRDT","adresse":"AVENUE CLAUDE VELLEFAUX"}},{"taille":{"h":10,"p":90},"nom":"Mûrier","info":{"genre":"Morus","espece":"alba","stade_developpement":"Adulte"},"id":"476488b5acd83155b708f66c1f4d1f0223c3c68b","geo":{"type":"Point","coordinates":[2.277018148875054,48.83891287699464]},"meta":{"arrondissement":"PARIS 15E ARRDT","adresse":"RUE DE LA MONTAGNE DE LA FAGE"}},{"taille":{"h":0,"p":0},"nom":"Mûrier","info":{"genre":"Morus","espece":"nigra"},"id":"2a7f2ced59bd7041325d635ffcc9739b774acf51","geo":{"type":"Point","coordinates":[2.45514594193502,48.82097018113369]},"meta":{"arrondissement":"BOIS DE VINCENNES","adresse":"ARBORETUM DE L ECOLE DU BREUIL - ROUTE DE LA FERME / ROUTE DE LA PYRAMIDE"}},{"taille":{"h":10,"p":80},"nom":"Mûrier","info":{"genre":"Morus","espece":"alba","stade_developpement":"Jeune (arbre)Adulte"},"id":"61606da20c0cb776172d5b55080d08a0cb8589ce","geo":{"type":"Point","coordinates":[2.39885684240218,48.88867577796528]},"meta":{"arrondissement":"PARIS 19E ARRDT","adresse":"RUE DE LA GRENADE"}},{"taille":{"h":0,"p":25},"nom":"Mûrier","info":{"genre":"Morus","espece":"nigra"},"id":"cbf052dfcb5409d9807837d6ed5318a48b84d776","geo":{"type":"Point","coordinates":[2.408669694434999,48.878437190527066]},"meta":{"arrondissement":"PARIS 19E ARRDT","adresse":"JARDIN SERGE GAINSBOURG / 11 AVENUE DE LAPORTE DES LILAS"}},{"taille":{"h":0,"p":25},"nom":"Mûrier","info":{"genre":"Morus","espece":"nigra"},"id":"dd378563492dfe65e4cc3dd4989fd4ddf43b5a89","geo":{"type":"Point","coordinates":[2.407596367841707,48.8786790554339]},"meta":{"arrondissement":"PARIS 19E ARRDT","adresse":"JARDIN SERGE GAINSBOURG / 11 AVENUE DE LAPORTE DES LILAS"}},{"taille":{"h":7,"p":180},"nom":"Mûrier","info":{"genre":"Morus","espece":"alba","stade_developpement":"Adulte"},"id":"ee034daa32872d1a9e2e7ebeeb767ddf4904dfee","geo":{"type":"Point","coordinates":[2.302193584480704,48.83186215215321]},"meta":{"arrondissement":"PARIS 15E ARRDT","adresse":"CRECHE COLLECTIVE / 44 RUE DES MORILLONS"}},{"taille":{"h":0,"p":40},"nom":"Mûrier","info":{"genre":"Morus","espece":"alba"},"id":"cb071ae631f0fff51b820eceed648d626c250bed","geo":{"type":"Point","coordinates":[2.292879615759242,48.82881227586047]},"meta":{"arrondissement":"PARIS 15E ARRDT","adresse":"SQUARE DE LA PORTE DE LA PLAINE / 2 PLACE DES INSURGES DE VARSOVIE"}},{"taille":{"h":8,"p":65},"nom":"Mûrier","info":{"genre":"Morus","espece":"alba","stade_developpement":"Jeune (arbre)Adulte","variete":"''Macrophylla''"},"id":"faf9d536ab12290b6f3486c4f4927b29894d84c1","geo":{"type":"Point","coordinates":[2.318998125090166,48.85117217329668]},"meta":{"arrondissement":"PARIS 7E ARRDT","adresse":"VANEAU (48) MAT"}},{"taille":{"h":11,"p":98},"nom":"Mûrier","info":{"genre":"Morus","espece":"alba","stade_developpement":"Adulte"},"id":"448be2295a9a21e597811a0bfb4569189f1594f0","geo":{"type":"Point","coordinates":[2.369782120781239,48.872245066982494]},"meta":{"arrondissement":"PARIS 10E ARRDT","adresse":"AVENUE CLAUDE VELLEFAUX"}},{"taille":{"h":8,"p":120},"nom":"Mûrier","info":{"genre":"Morus","espece":"alba","stade_developpement":"Adulte"},"id":"0a6dfb0cee051ebefe8981bae3d8a77464872692","geo":{"type":"Point","coordinates":[2.36782536216491,48.86867633611503]},"meta":{"arrondissement":"PARIS 11E ARRDT","adresse":"RUE DE LA FONTAINE AU ROI"}},{"taille":{"h":5,"p":85},"nom":"Mûrier","info":{"genre":"Morus","espece":"n. sp.","stade_developpement":"Adulte"},"id":"07916375f8c000609081e5773c293649f9e0120e","geo":{"type":"Point","coordinates":[2.392697466252303,48.859047973719946]},"meta":{"arrondissement":"PARIS 20E ARRDT","adresse":"CIMETIERE DU PERE LACHAISE / DIV 73"}},{"taille":{"h":7,"p":86},"nom":"Mûrier","info":{"genre":"Morus","espece":"alba","stade_developpement":"Jeune (arbre)Adulte"},"id":"cfd9e11bf875f0b7f98f7a3f638a2b483b7e4d83","geo":{"type":"Point","coordinates":[2.305012531089765,48.89089121707484]},"meta":{"arrondissement":"PARIS 17E ARRDT","adresse":"PLACE MAGASINS DE L OPERA COMIQUE"}},{"taille":{"h":8,"p":100},"nom":"Mûrier","info":{"genre":"Morus","espece":"alba"},"id":"904b0a9e011624e241cc11d72b4520e60203e1db","geo":{"type":"Point","coordinates":[2.362366389583389,48.82023587202591]},"meta":{"arrondissement":"PARIS 13E ARRDT","adresse":"SQUARE SAMUEL BECKETT / 47 RUE GANDON"}},{"taille":{"h":7,"p":102},"nom":"Mûrier","info":{"genre":"Morus","espece":"alba","stade_developpement":"Adulte"},"id":"cbacc6f897fc2d3c9b64086bfed9d5840c699a0f","geo":{"type":"Point","coordinates":[2.369558039252707,48.872244210745684]},"meta":{"arrondissement":"PARIS 10E ARRDT","adresse":"AVENUE CLAUDE VELLEFAUX"}},{"taille":{"h":5,"p":70},"info":{"genre":"Morus","stade_developpement":"Adulte"},"id":"d07c0c9b9a0c7056d2833975df4c0e14f6bf1d44","geo":{"type":"Point","coordinates":[2.387162643537291,48.84669025718045]},"meta":{"arrondissement":"PARIS 12E ARRDT","adresse":"PLACE JEAN LAUPRETRE"}},{"taille":{"h":12,"p":185},"nom":"Mûrier","info":{"genre":"Morus","espece":"n. sp.","stade_developpement":"Adulte"},"id":"a18ab0dfc2418905ea8c952af8a3a7667ce23fce","geo":{"type":"Point","coordinates":[2.30879652611041,48.83590007177904]},"meta":{"arrondissement":"PARIS 15E ARRDT","adresse":"ALLERAY (102) MAT"}},{"taille":{"h":9,"p":134},"nom":"Mûrier","info":{"genre":"Morus","espece":"alba","stade_developpement":"Adulte"},"id":"6e27089eea356459bccb79e9092f991ef36bf852","geo":{"type":"Point","coordinates":[2.353104063049047,48.886605689206704]},"meta":{"arrondissement":"PARIS 18E ARRDT","adresse":"SQUARE DU PASSAGE LEON / 20 RUE DES GARDES"}},{"taille":{"h":5,"p":80},"nom":"Mûrier","info":{"genre":"Morus","espece":"alba","stade_developpement":"Jeune (arbre)Adulte"},"id":"d12711357081205383b168080cdc9edeb14567f2","geo":{"type":"Point","coordinates":[2.365391195175894,48.89106367710545]},"meta":{"arrondissement":"PARIS 18E ARRDT","adresse":"RUE DE TORCY"}},{"taille":{"h":5,"p":69},"nom":"Mûrier","info":{"genre":"Morus","espece":"alba","stade_developpement":"Jeune (arbre)Adulte"},"id":"592126af3b0175c99a38e112a567f3468e607c3d","geo":{"type":"Point","coordinates":[2.335038345682083,48.885721706073234]},"meta":{"arrondissement":"PARIS 18E ARRDT","adresse":"RUE DES ABBESSES"}},{"taille":{"h":8,"p":104},"nom":"Mûrier","info":{"genre":"Morus","espece":"alba","stade_developpement":"Adulte"},"id":"c127d62dc7086c043d7d89a362d94fe3ea638612","geo":{"type":"Point","coordinates":[2.294582628653194,48.857095461887916]},"meta":{"arrondissement":"PARIS 7E ARRDT","adresse":"JARDIN DU CHAMP DE MARS ET PELOUSES DE L ECOLE MILITAIRE"}},{"taille":{"h":3,"p":51},"nom":"Mûrier","info":{"genre":"Morus","espece":"alba","variete":"''Pendula''"},"id":"ee3de24e76f780fd862f52658fbe391cdc5a8499","geo":{"type":"Point","coordinates":[2.361213467945142,48.820255269864816]},"meta":{"arrondissement":"PARIS 13E ARRDT","adresse":"SQUARE JUAN MIRO"}},{"taille":{"h":12,"p":145},"nom":"Mûrier","info":{"genre":"Morus","espece":"alba","stade_developpement":"Adulte"},"id":"715e742265f67816869f39561cd95f0e3a71d75f","geo":{"type":"Point","coordinates":[2.38163000492636,48.87911991824629]},"meta":{"arrondissement":"PARIS 19E ARRDT","adresse":"PARC DES BUTTES CHAUMONT"}},{"taille":{"h":6,"p":80},"nom":"Mûrier","info":{"genre":"Morus","espece":"n. sp.","stade_developpement":"Adulte"},"id":"32dcdef2a38d378a5b3647c34234bb7fdaf9f699","geo":{"type":"Point","coordinates":[2.268973874626119,48.82871645012152]},"meta":{"arrondissement":"PARIS 15E ARRDT","adresse":"ECOLE POLYVALENTE / 3 BOULEVARD FRERES VOISIN"}},{"taille":{"h":8,"p":105},"nom":"Mûrier","info":{"genre":"Morus","espece":"alba"},"id":"ef2cdd632840d52d46c8c3056769742a9de63a32","geo":{"type":"Point","coordinates":[2.362350948060035,48.820294627087456]},"meta":{"arrondissement":"PARIS 13E ARRDT","adresse":"SQUARE SAMUEL BECKETT / 47 RUE GANDON"}},{"taille":{"h":0,"p":25},"nom":"Mûrier","info":{"genre":"Morus","espece":"nigra"},"id":"1c7773910c516264e7dae91adefc200d4ddb81ea","geo":{"type":"Point","coordinates":[2.408673915071032,48.878928901062615]},"meta":{"arrondissement":"PARIS 19E ARRDT","adresse":"JARDIN SERGE GAINSBOURG / 11 AVENUE DE LAPORTE DES LILAS"}},{"taille":{"h":11,"p":107},"nom":"Mûrier","info":{"genre":"Morus","espece":"alba","stade_developpement":"Adulte"},"id":"e3bf1d258e28bcaada30bacc4dbdb26e6a39c8fd","geo":{"type":"Point","coordinates":[2.3700891860263242,48.87144911514007]},"meta":{"arrondissement":"PARIS 10E ARRDT","adresse":"AVENUE PARMENTIER"}},{"taille":{"h":2,"p":20},"nom":"Mûrier","info":{"genre":"Morus","espece":"n. sp."},"id":"743ead6c01b349acd4174714073f868d10470910","geo":{"type":"Point","coordinates":[2.295025289371783,48.85706215028646]},"meta":{"arrondissement":"PARIS 7E ARRDT","adresse":"JARDIN DU CHAMP DE MARS ET PELOUSES DE L ECOLE MILITAIRE"}},{"taille":{"h":10,"p":140},"nom":"Mûrier","info":{"genre":"Morus","espece":"alba","stade_developpement":"Adulte"},"id":"8036b6a4ebbe9b8cafbb45eb27af6c34f53d4752","geo":{"type":"Point","coordinates":[2.344391433155667,48.81956213853259]},"meta":{"arrondissement":"PARIS 14E ARRDT","adresse":"BOULEVARD JOURDAN"}},{"taille":{"h":3,"p":50},"nom":"Mûrier","info":{"genre":"Morus","espece":"alba","stade_developpement":"Adulte"},"id":"cb00ccc8961d1e7c67e91c880ff8ff7a1f35019b","geo":{"type":"Point","coordinates":[2.3473920984161563,48.85893087996266]},"meta":{"arrondissement":"PARIS 1ER ARRDT","adresse":"JARDINIERES ANGLE RUE DE RIVOLI - RUE DES HALLES / 1 RUE DES HALLES"}},{"taille":{"h":0,"p":0},"nom":"Mûrier","info":{"genre":"Morus","espece":"alba","variete":"''Pendula''"},"id":"7a419b6158a84cac6ad0e57dc31f170d07829ed4","geo":{"type":"Point","coordinates":[2.274547137311484,48.84266723701631]},"meta":{"arrondissement":"PARIS 15E ARRDT","adresse":"PARC ANDRE CITROEN"}},{"taille":{"h":10,"p":105},"nom":"Mûrier","info":{"genre":"Morus","espece":"alba","stade_developpement":"Adulte"},"id":"8b06fa18bd4583f9858b048a175a7c53453e3fc9","geo":{"type":"Point","coordinates":[2.398699910609237,48.88859576882058]},"meta":{"arrondissement":"PARIS 19E ARRDT","adresse":"RUE DE LA GRENADE"}},{"taille":{"h":0,"p":50},"nom":"Mûrier","info":{"genre":"Morus","espece":"alba"},"id":"a759f67f879dee13fa030a56b8c18666f051e061","geo":{"type":"Point","coordinates":[2.29324014426281,48.828791805592274]},"meta":{"arrondissement":"PARIS 15E ARRDT","adresse":"SQUARE DE LA PORTE DE LA PLAINE / 2 PLACE DES INSURGES DE VARSOVIE"}},{"taille":{"h":0,"p":110},"nom":"Mûrier","info":{"genre":"Morus","espece":"alba","stade_developpement":"Adulte"},"id":"6372004d503b74304ff2f96075607ea91d3f9772","geo":{"type":"Point","coordinates":[2.382755409322002,48.87075609699647]},"meta":{"arrondissement":"PARIS 20E ARRDT","adresse":"JARDIN DE LA RUE PALI KAO / 38 RUE PALI KAO"}},{"taille":{"h":5,"p":70},"nom":"Mûrier","info":{"genre":"Morus","espece":"n. sp.","stade_developpement":"Jeune (arbre)"},"id":"2e19352f2159fb84316662803958e4c7c424c853","geo":{"type":"Point","coordinates":[2.413891387032292,48.85942136122441]},"meta":{"arrondissement":"PARIS 20E ARRDT","adresse":"TALUS N°30-03"}},{"taille":{"h":10,"p":125},"nom":"Mûrier","info":{"genre":"Morus","espece":"alba","stade_developpement":"Adulte"},"id":"ba6ce0e1b1de3c56676764b1b00acd3f8f3b2202","geo":{"type":"Point","coordinates":[2.2770061669075092,48.838967315563416]},"meta":{"arrondissement":"PARIS 15E ARRDT","adresse":"RUE DE LA MONTAGNE DE LA FAGE"}},{"taille":{"h":0,"p":25},"nom":"Mûrier","info":{"genre":"Morus","espece":"nigra"},"id":"f41f22132f95b6d4616ad0518b546a6925ac7426","geo":{"type":"Point","coordinates":[2.408870984960304,48.87866563373986]},"meta":{"arrondissement":"PARIS 19E ARRDT","adresse":"JARDIN SERGE GAINSBOURG / 11 AVENUE DE LAPORTE DES LILAS"}},{"taille":{"h":6,"p":60},"nom":"Mûrier","info":{"genre":"Morus","espece":"alba"},"id":"f512f30301d7280369159e411d852e69ce18c75b","geo":{"type":"Point","coordinates":[2.3005125605519012,48.83255023024616]},"meta":{"arrondissement":"PARIS 15E ARRDT","adresse":"PARC GEORGES BRASSENS / 2 PLACE JACQUES MARETTE"}},{"taille":{"h":11,"p":113},"nom":"Mûrier","info":{"genre":"Morus","espece":"alba","stade_developpement":"Adulte"},"id":"6dc072566bc016e1f1172fec75c6a3fc9963e687","geo":{"type":"Point","coordinates":[2.369747825818985,48.87191100756101]},"meta":{"arrondissement":"PARIS 10E ARRDT","adresse":"AVENUE PARMENTIER"}},{"taille":{"h":7,"p":140},"nom":"Mûrier","info":{"genre":"Morus","espece":"alba"},"id":"76caffa65b7739f80c8949f7fcb7ff0e44180d09","geo":{"type":"Point","coordinates":[2.353763443268678,48.84231172469585]},"meta":{"arrondissement":"PARIS 5E ARRDT","adresse":"SQUARE ROBERT MONTAGNE / 10 BIS RUE LARREY"}},{"taille":{"h":8,"p":63},"nom":"Mûrier","info":{"genre":"Morus","espece":"alba","stade_developpement":"Adulte"},"id":"f13b378771648a566c9b336576f043687f6fd695","geo":{"type":"Point","coordinates":[2.370732719942037,48.87058069998422]},"meta":{"arrondissement":"PARIS 10E ARRDT","adresse":"AVENUE PARMENTIER"}},{"taille":{"h":10,"p":100},"nom":"Mûrier","info":{"genre":"Morus","espece":"alba","stade_developpement":"Adulte"},"id":"ed2af6ec9a8e7e4d960ee05ed788cb5888626223","geo":{"type":"Point","coordinates":[2.373385067010786,48.82057936842551]},"meta":{"arrondissement":"PARIS 13E ARRDT","adresse":"AVENUE JOSEPH BEDIER"}},{"taille":{"h":0,"p":25},"nom":"Mûrier","info":{"genre":"Morus","espece":"nigra"},"id":"67df574f983f9abf568b73d41a2717fc04900dde","geo":{"type":"Point","coordinates":[2.407605030519925,48.87786832659594]},"meta":{"arrondissement":"PARIS 19E ARRDT","adresse":"JARDIN SERGE GAINSBOURG / 11 AVENUE DE LAPORTE DES LILAS"}},{"taille":{"h":8,"p":120},"nom":"Mûrier","info":{"genre":"Morus","espece":"alba","stade_developpement":"Adulte"},"id":"19c269e083165cb9223d4188cf5783caeeca71c0","geo":{"type":"Point","coordinates":[2.346652265497529,48.88742289593417]},"meta":{"arrondissement":"PARIS 18E ARRDT","adresse":"JARDINIERE DE LA RUE DU CHEVALIER DE LA BARRE / 2 RUE DU CHEVALIER DE LA BARRE"}},{"taille":{"h":8,"p":85},"nom":"Mûrier","info":{"genre":"Morus","espece":"n. sp.","stade_developpement":"Adulte"},"id":"33a22dd282fc812f3562ba5951b333f922a4c8fc","geo":{"type":"Point","coordinates":[2.292163617623955,48.88850679725786]},"meta":{"arrondissement":"PARIS 17E ARRDT","adresse":"TALUS N°17-06"}},{"taille":{"h":8,"p":135},"nom":"Mûrier","info":{"genre":"Morus","espece":"alba","stade_developpement":"Adulte"},"id":"87ebee9845045945f6999788049737ac71981747","geo":{"type":"Point","coordinates":[2.382164203693709,48.870761680463175]},"meta":{"arrondissement":"PARIS 20E ARRDT","adresse":"PLACE ALPHONSE ALLAIS"}},{"taille":{"h":6,"p":90},"nom":"Mûrier","info":{"genre":"Morus","espece":"alba","stade_developpement":"Jeune (arbre)Adulte"},"id":"fe891e6a484b780ee9aec16a6167ff0c6b9d8633","geo":{"type":"Point","coordinates":[2.382274864928072,48.87063847586469]},"meta":{"arrondissement":"PARIS 20E ARRDT","adresse":"PLACE ALPHONSE ALLAIS"}},{"taille":{"h":10,"p":78},"nom":"Mûrier","info":{"genre":"Morus","espece":"alba","stade_developpement":"Adulte"},"id":"25bcaaa8e2f45b4fdaa814e6657c168875b59d8d","geo":{"type":"Point","coordinates":[2.370314544599147,48.87081401046573]},"meta":{"arrondissement":"PARIS 10E ARRDT","adresse":"AVENUE PARMENTIER"}},{"taille":{"h":9,"p":90},"nom":"Mûrier","info":{"genre":"Morus","espece":"alba","stade_developpement":"Adulte"},"id":"6eba6a42a1fc3466282e763d32705b0f191628fc","geo":{"type":"Point","coordinates":[2.26799874556912,48.85109775986303]},"meta":{"arrondissement":"PARIS 16E ARRDT","adresse":"RUE DE LA SOURCE"}},{"taille":{"h":0,"p":0},"nom":"Mûrier","info":{"genre":"Morus","espece":"alba","variete":"''Pendula''"},"id":"8baec038747d3d749fa626aa41e090e88d2261e2","geo":{"type":"Point","coordinates":[2.274547426186705,48.84287848280084]},"meta":{"arrondissement":"PARIS 15E ARRDT","adresse":"PARC ANDRE CITROEN"}},{"taille":{"h":10,"p":145},"nom":"Mûrier","info":{"genre":"Morus","espece":"alba","stade_developpement":"Adulte"},"id":"624716941540035aaa971dd8b4d0a8d9896c27b2","geo":{"type":"Point","coordinates":[2.3585427201684,48.83210228190895]},"meta":{"arrondissement":"PARIS 13E ARRDT","adresse":"DECORATION DE LA PLACE DES ALPES / 3 V PLACE DES ALPES"}},{"taille":{"h":0,"p":0},"nom":"Mûrier","info":{"genre":"Morus","espece":"alba","variete":"''Pendula''"},"id":"bf0ae806892c0c5a78b9608a232fe32828d0be4a","geo":{"type":"Point","coordinates":[2.274608904338405,48.84265147687162]},"meta":{"arrondissement":"PARIS 15E ARRDT","adresse":"PARC ANDRE CITROEN"}},{"taille":{"h":10,"p":170},"nom":"Mûrier","info":{"genre":"Morus","espece":"alba","stade_developpement":"Adulte"},"id":"e7ce374fb2cf783a624c19e258dd021021250ba0","geo":{"type":"Point","coordinates":[2.407862307623633,48.8802534479727]},"meta":{"arrondissement":"PARIS 19E ARRDT","adresse":"AVENUE DU BELVEDERE"}},{"taille":{"h":12,"p":123},"nom":"Mûrier","info":{"genre":"Morus","espece":"alba","stade_developpement":"Adulte"},"id":"3085cda4e53b4c4566078b0488121f20ca3fa94d","geo":{"type":"Point","coordinates":[2.3702747569234512,48.87119796228481]},"meta":{"arrondissement":"PARIS 10E ARRDT","adresse":"AVENUE PARMENTIER"}},{"taille":{"h":10,"p":135},"nom":"Mûrier","info":{"genre":"Morus","espece":"alba","stade_developpement":"Adulte"},"id":"22db63110e525c20ad2fdc275f5e59753dfface4","geo":{"type":"Point","coordinates":[2.37346352644738,48.82078490971484]},"meta":{"arrondissement":"PARIS 13E ARRDT","adresse":"AVENUE JOSEPH BEDIER"}},{"taille":{"h":0,"p":130},"nom":"Mûrier","info":{"genre":"Morus","espece":"alba","stade_developpement":"Adulte"},"id":"41736dd2a82adfaac473874533aa83c0abcca973","geo":{"type":"Point","coordinates":[2.383120570514728,48.87080197504729]},"meta":{"arrondissement":"PARIS 20E ARRDT","adresse":"JARDIN DE LA RUE PALI KAO / 38 RUE PALI KAO"}},{"taille":{"h":11,"p":86},"nom":"Mûrier","info":{"genre":"Morus","espece":"alba","stade_developpement":"Adulte"},"id":"e40b49431f55c42bdc0117a301a449d7107e2b42","geo":{"type":"Point","coordinates":[2.370013421158964,48.87155213121296]},"meta":{"arrondissement":"PARIS 10E ARRDT","adresse":"AVENUE PARMENTIER"}},{"taille":{"h":10,"p":100},"nom":"Mûrier","info":{"genre":"Morus","espece":"alba","stade_developpement":"Adulte"},"id":"869f3e6dfe8dec6ddc6646ae29446267f951a95a","geo":{"type":"Point","coordinates":[2.277743954719317,48.8386091184515]},"meta":{"arrondissement":"PARIS 15E ARRDT","adresse":"RUE DE LA MONTAGNE DE LA FAGE"}},{"taille":{"h":4,"p":43},"nom":"Mûrier","info":{"genre":"Morus","espece":"alba","stade_developpement":"Jeune (arbre)Adulte","variete":"''Pendula''"},"id":"0c537f62bde3ebff195b473e97bea20ec781a6b3","geo":{"type":"Point","coordinates":[2.278351690903654,48.875291022489066]},"meta":{"arrondissement":"PARIS 16E ARRDT","adresse":"SQUARE ANNA DE NOAILLES"}},{"taille":{"h":6,"p":50},"nom":"Mûrier","info":{"genre":"Morus","espece":"nigra"},"id":"3778c6a62a9829b4963e254b6a817c8b9c8c1be6","geo":{"type":"Point","coordinates":[2.311235617590818,48.85738529490674]},"meta":{"arrondissement":"PARIS 7E ARRDT","adresse":"SQUARE SANTIAGO DU CHILI / 1 PLACE SALVADOR ALLENDE"}},{"taille":{"h":12,"p":150},"nom":"Mûrier","info":{"genre":"Morus","espece":"alba","stade_developpement":"Adulte"},"id":"f6beb9fd420ce52372b81364b448269b55396ca9","geo":{"type":"Point","coordinates":[2.370563461676552,48.8117466840888]},"meta":{"arrondissement":"VAL-DE-MARNE","adresse":"CIMETIERE D''IVRY / DIV 10"}},{"taille":{"h":5,"p":155},"nom":"Mûrier","info":{"genre":"Morus","espece":"n. sp.","stade_developpement":"Adulte"},"id":"e5766c5daf9b5a9f3a3565b886886edaf5fdcb02","geo":{"type":"Point","coordinates":[2.413911700331301,48.85832198589333]},"meta":{"arrondissement":"PARIS 20E ARRDT","adresse":"TALUS N°30-03"}},{"taille":{"h":8,"p":93},"nom":"Mûrier","info":{"genre":"Morus","espece":"alba","stade_developpement":"Jeune (arbre)Adulte"},"id":"801bb0d00dba584a68d2a6b9463c2f641ef2cf67","geo":{"type":"Point","coordinates":[2.304992664235605,48.890931769369296]},"meta":{"arrondissement":"PARIS 17E ARRDT","adresse":"PLACE MAGASINS DE L OPERA COMIQUE"}},{"taille":{"h":11,"p":102},"nom":"Mûrier","info":{"genre":"Morus","espece":"alba","stade_developpement":"Adulte"},"id":"2140d9c1d4c2329b3312b4da984f9c9e1c8dc225","geo":{"type":"Point","coordinates":[2.369978395700721,48.87269632611616]},"meta":{"arrondissement":"PARIS 10E ARRDT","adresse":"AVENUE CLAUDE VELLEFAUX"}},{"taille":{"h":10,"p":100},"nom":"Mûrier","info":{"genre":"Morus","espece":"alba","stade_developpement":"Jeune (arbre)Adulte"},"id":"89a8df2a79cb405bc653c749e260fdf3c5c1dd20","geo":{"type":"Point","coordinates":[2.331061695149768,48.828284969692085]},"meta":{"arrondissement":"PARIS 14E ARRDT","adresse":"RUE DU COMMANDEUR"}},{"taille":{"h":8,"p":147},"nom":"Mûrier","info":{"genre":"Morus","espece":"alba","variete":"''Macrophylla''"},"id":"99621199b4f27530db7697b0cfff217ed2677676","geo":{"type":"Point","coordinates":[2.392743277297511,48.8780400980765]},"meta":{"arrondissement":"PARIS 19E ARRDT","adresse":"SQUARE DE LA RUE COMPANS"}},{"taille":{"h":0,"p":142},"nom":"Mûrier","info":{"genre":"Morus","espece":"alba"},"id":"b6bdb1e196d5e604e3979cceb4bbb1c21c1f9740","geo":{"type":"Point","coordinates":[2.269733824888425,48.82858142793481]},"meta":{"arrondissement":"PARIS 15E ARRDT","adresse":"PARC OMNISPORT SUZANNE LENGLEN / 7 BOULEVARD DES FRERES VOISIN"}},{"taille":{"h":2,"p":40},"nom":"Mûrier","info":{"genre":"Morus","espece":"alba","stade_developpement":"Jeune (arbre)Adulte","variete":"''Pendula''"},"id":"32b5869180f143a35d3859a81cc56333fe4b099a","geo":{"type":"Point","coordinates":[2.281173773298262,48.8772284214631]},"meta":{"arrondissement":"PARIS 16E ARRDT","adresse":"SQUARE ALEXANDRE ET RENE PARODI / 1 PLACE DE LA PORTE MAILLOT"}},{"taille":{"h":9,"p":147},"nom":"Mûrier","info":{"genre":"Morus","espece":"alba","stade_developpement":"Adulte"},"id":"1e6dc182f568f734e5ed3c717c1906d484b83ae4","geo":{"type":"Point","coordinates":[2.253574008666924,48.837204866485926]},"meta":{"arrondissement":"PARIS 16E ARRDT","adresse":"JARDINS DE LA PORTE DE SAINT CLOUD / 38 AVENUE FERDINAND BUISSON"}},{"taille":{"h":8,"p":95},"nom":"Mûrier","info":{"genre":"Morus","espece":"alba","stade_developpement":"Adulte"},"id":"dc27c19541f5ab3e1193ba48df61596912ff68ea","geo":{"type":"Point","coordinates":[2.389033127261323,48.899887961155976]},"meta":{"arrondissement":"PARIS 19E ARRDT","adresse":"SQUARE DE LA PORTE DE LA VILLETTE / 22 RUE DU CHEMIN DE FER"}},{"taille":{"h":10,"p":150},"nom":"Mûrier","info":{"genre":"Morus","espece":"alba","stade_developpement":"Adulte"},"id":"8af47e261976a007c63aa2deb54b6a23decc279e","geo":{"type":"Point","coordinates":[2.373100010612546,48.82068863272057]},"meta":{"arrondissement":"PARIS 13E ARRDT","adresse":"AVENUE JOSEPH BEDIER"}},{"taille":{"h":0,"p":25},"nom":"Mûrier","info":{"genre":"Morus","espece":"nigra"},"id":"7bdb3cd25cad8dac5f39aa9321fef27315d62f49","geo":{"type":"Point","coordinates":[2.408737191409045,48.87886320291936]},"meta":{"arrondissement":"PARIS 19E ARRDT","adresse":"JARDIN SERGE GAINSBOURG / 11 AVENUE DE LAPORTE DES LILAS"}},{"taille":{"h":0,"p":25},"nom":"Mûrier","info":{"genre":"Morus","espece":"nigra"},"id":"225e6b403d440a7fe76e554e4b5615e57768fed7","geo":{"type":"Point","coordinates":[2.408886624995446,48.87863914481179]},"meta":{"arrondissement":"PARIS 19E ARRDT","adresse":"JARDIN SERGE GAINSBOURG / 11 AVENUE DE LAPORTE DES LILAS"}},{"taille":{"h":10,"p":75},"nom":"Mûrier","info":{"genre":"Morus","espece":"n. sp."},"id":"5f0b01983d69e3803ed05bb2f85e48f27d0eafbd","geo":{"type":"Point","coordinates":[2.361525436819051,48.82794710853656]},"meta":{"arrondissement":"PARIS 13E ARRDT","adresse":"SQUARE DE CHOISY"}},{"taille":{"h":10,"p":115},"nom":"Mûrier","info":{"genre":"Morus","espece":"alba","stade_developpement":"Adulte"},"id":"61995b83bafdc668a3a9970532209896c503dabf","geo":{"type":"Point","coordinates":[2.373436071969545,48.82049448256576]},"meta":{"arrondissement":"PARIS 13E ARRDT","adresse":"AVENUE JOSEPH BEDIER"}},{"taille":{"h":6,"p":50},"nom":"Mûrier","info":{"genre":"Morus","espece":"alba","stade_developpement":"Jeune (arbre)Adulte"},"id":"2ecf28bcf1bfc6b8ef2610f8cfbe922cf19339ec","geo":{"type":"Point","coordinates":[2.372952538837785,48.82036775275791]},"meta":{"arrondissement":"PARIS 13E ARRDT","adresse":"AVENUE JOSEPH BEDIER"}},{"taille":{"h":5,"p":90},"nom":"Mûrier","info":{"genre":"Morus","espece":"alba","stade_developpement":"Jeune (arbre)Adulte"},"id":"16405ce6d8c4baca9495bd2ab6624b5eadfcddb8","geo":{"type":"Point","coordinates":[2.365311549782151,48.8910679584377]},"meta":{"arrondissement":"PARIS 18E ARRDT","adresse":"RUE DE TORCY"}},{"taille":{"h":10,"p":155},"nom":"Mûrier","info":{"genre":"Morus","espece":"alba","stade_developpement":"Adulte"},"id":"868b1497a7aa564003e824787c10d0a83c226e9a","geo":{"type":"Point","coordinates":[2.277309882651241,48.83989063888402]},"meta":{"arrondissement":"PARIS 15E ARRDT","adresse":"RUE DE LA MONTAGNE DE LA FAGE"}},{"taille":{"h":4,"p":78},"nom":"Mûrier","info":{"genre":"Morus","espece":"alba","stade_developpement":"Jeune (arbre)Adulte"},"id":"40a3f14a269011899c5c993bbcdf9d51466ec801","geo":{"type":"Point","coordinates":[2.362045905468463,48.87537331992449]},"meta":{"arrondissement":"PARIS 10E ARRDT","adresse":"SQUARE VILLEMIN"}},{"taille":{"h":8,"p":165},"nom":"Mûrier","info":{"genre":"Morus","espece":"nigra","stade_developpement":"Adulte"},"id":"147b677da0d2b4991aba975d8320b7727d25dd74","geo":{"type":"Point","coordinates":[2.296987989223837,48.83037652910228]},"meta":{"arrondissement":"PARIS 15E ARRDT","adresse":"JULES DUPRE"}},{"taille":{"h":8,"p":120},"nom":"Mûrier","info":{"genre":"Morus","espece":"alba","stade_developpement":"Adulte"},"id":"825b016c4aaf882cd3c7c79ea9e9f64c5c292236","geo":{"type":"Point","coordinates":[2.389012137435031,48.899946974880265]},"meta":{"arrondissement":"PARIS 19E ARRDT","adresse":"SQUARE DE LA PORTE DE LA VILLETTE / 22 RUE DU CHEMIN DE FER"}},{"taille":{"h":7,"p":110},"nom":"Mûrier","info":{"genre":"Morus","espece":"alba","stade_developpement":"Adulte"},"id":"986b111ec7b8c1d92f6cf21cbfb1eabfa68363fc","geo":{"type":"Point","coordinates":[2.318193176307744,48.86704018757188]},"meta":{"arrondissement":"PARIS 8E ARRDT","adresse":"JARDINS DES CHAMPS ELYSEES - JARDIN DES AMBASSADEURS / 10 AVENUE DES CHAMPS ELYSEES"}},{"taille":{"h":5,"p":65},"nom":"Mûrier","info":{"genre":"Morus","espece":"alba","stade_developpement":"Jeune (arbre)Adulte"},"id":"fbeea979b35b871665587e2a8f8386003c71caff","geo":{"type":"Point","coordinates":[2.402382473156205,48.841307984595915]},"meta":{"arrondissement":"PARIS 12E ARRDT","adresse":"RUE SIBUET"}},{"taille":{"h":4,"p":60},"nom":"Mûrier","info":{"genre":"Morus","espece":"alba","stade_developpement":"Adulte"},"id":"e3ea0c2792afc8664968903000b3c154fa22888c","geo":{"type":"Point","coordinates":[2.288844698073608,48.884287569399795]},"meta":{"arrondissement":"PARIS 17E ARRDT","adresse":"ESPLANADE DU GENERAL CASSO"}},{"taille":{"h":0,"p":0},"nom":"Mûrier","info":{"genre":"Morus","espece":"alba"},"id":"4b860ccadeb58e58295d22404a5ce018400bea10","geo":{"type":"Point","coordinates":[2.2929415512496663,48.8288527723532]},"meta":{"arrondissement":"PARIS 15E ARRDT","adresse":"SQUARE DE LA PORTE DE LA PLAINE / 2 PLACE DES INSURGES DE VARSOVIE"}},{"taille":{"h":13,"p":97},"nom":"Mûrier","info":{"genre":"Morus","espece":"alba","stade_developpement":"Adulte"},"id":"e2ca536e098f0944f02bb67398a805819662be7c","geo":{"type":"Point","coordinates":[2.370480758093191,48.87091667181303]},"meta":{"arrondissement":"PARIS 10E ARRDT","adresse":"AVENUE PARMENTIER"}},{"taille":{"h":5,"p":20},"nom":"Mûrier","info":{"genre":"Morus","espece":"alba","variete":"''Fruitless''"},"id":"1fa5a3ab86d4b27307c1406ac92e01c3d9e52881","geo":{"type":"Point","coordinates":[2.3608964357617372,48.89420638913342]},"meta":{"arrondissement":"PARIS 18E ARRDT","adresse":"ECOLE POLYVALENTE / 3 RUE MAURICE GENEVOIX"}},{"taille":{"h":12,"p":122},"nom":"Mûrier","info":{"genre":"Morus","espece":"alba","stade_developpement":"Adulte"},"id":"5a849934c99f697a64948856cd397f1b53a21d77","geo":{"type":"Point","coordinates":[2.369824286133481,48.87286168527783]},"meta":{"arrondissement":"PARIS 10E ARRDT","adresse":"AVENUE CLAUDE VELLEFAUX"}},{"taille":{"h":5,"p":45},"nom":"Mûrier","info":{"genre":"Morus","espece":"n. sp.","stade_developpement":"Jeune (arbre)Adulte"},"id":"613b84b73e3e27eea442d58a0b92c79631c618ec","geo":{"type":"Point","coordinates":[2.4137320444701382,48.85384658916623]},"meta":{"arrondissement":"PARIS 20E ARRDT","adresse":"TALUS N°31-01"}},{"taille":{"h":10,"p":85},"nom":"Mûrier","info":{"genre":"Morus","espece":"alba","stade_developpement":"Adulte"},"id":"2183fe9b97165b8099fb4ed67c606e33fc4c2d4e","geo":{"type":"Point","coordinates":[2.373381800154819,48.82076280645845]},"meta":{"arrondissement":"PARIS 13E ARRDT","adresse":"AVENUE JOSEPH BEDIER"}},{"taille":{"h":8,"p":100},"nom":"Mûrier","info":{"genre":"Morus","espece":"alba"},"id":"d7947d41d0c62e605e2688b970b0d6a686026e5c","geo":{"type":"Point","coordinates":[2.362441876025366,48.82030002255084]},"meta":{"arrondissement":"PARIS 13E ARRDT","adresse":"SQUARE SAMUEL BECKETT / 47 RUE GANDON"}},{"taille":{"h":8,"p":100},"nom":"Mûrier","info":{"genre":"Morus","espece":"alba"},"id":"a337e76a8a05d0e1614539e05c6155e34814a2b0","geo":{"type":"Point","coordinates":[2.362425534787538,48.82036219046282]},"meta":{"arrondissement":"PARIS 13E ARRDT","adresse":"SQUARE SAMUEL BECKETT / 47 RUE GANDON"}},{"taille":{"h":10,"p":100},"nom":"Mûrier","info":{"genre":"Morus","espece":"alba","stade_developpement":"Jeune (arbre)Adulte"},"id":"12834574cd6a5824d8bac49839106184ed1da7a3","geo":{"type":"Point","coordinates":[2.33101867126248,48.82835336041369]},"meta":{"arrondissement":"PARIS 14E ARRDT","adresse":"RUE DU COMMANDEUR"}},{"taille":{"h":3,"p":34},"nom":"Mûrier","info":{"genre":"Morus","espece":"alba","variete":"''Pendula''"},"id":"dd0f41950e84f722ce62d6746cafb78a490f876a","geo":{"type":"Point","coordinates":[2.346429738753133,48.84905236870476]},"meta":{"arrondissement":"PARIS 5E ARRDT","adresse":"JARDIN DU MONUMENT RONSARD / 16 RUE JEAN DE BEAUVAIS"}},{"taille":{"h":11,"p":91},"nom":"Mûrier","info":{"genre":"Morus","espece":"alba","stade_developpement":"Adulte"},"id":"b656c9735612b389b6f302b9f62b5510b3bcda43","geo":{"type":"Point","coordinates":[2.37007482581176,48.872918376136624]},"meta":{"arrondissement":"PARIS 10E ARRDT","adresse":"AVENUE CLAUDE VELLEFAUX"}},{"taille":{"h":13,"p":124},"nom":"Mûrier","info":{"genre":"Morus","espece":"alba","stade_developpement":"Adulte"},"id":"55ff64d14a9cc961be757436ff17ab31ee68932d","geo":{"type":"Point","coordinates":[2.371045086683654,48.87011593594043]},"meta":{"arrondissement":"PARIS 10E ARRDT","adresse":"AVENUE PARMENTIER"}},{"taille":{"h":4,"p":58},"nom":"Mûrier","info":{"genre":"Morus","espece":"alba","stade_developpement":"Jeune (arbre)Adulte"},"id":"6083bfaa6e0ccb6b90c156fec7f58f0377a1254f","geo":{"type":"Point","coordinates":[2.288398747946118,48.887152894955506]},"meta":{"arrondissement":"PARIS 17E ARRDT","adresse":"JARDIN LILY LASKINE"}},{"taille":{"h":10,"p":100},"nom":"Mûrier","info":{"genre":"Morus","espece":"alba","stade_developpement":"Adulte"},"id":"01aa88cef5529fbfee1d7388410bf42849d460a7","geo":{"type":"Point","coordinates":[2.27705989124191,48.83960569114965]},"meta":{"arrondissement":"PARIS 15E ARRDT","adresse":"RUE DE LA MONTAGNE DE LA FAGE"}},{"taille":{"h":0,"p":0},"nom":"Mûrier","info":{"genre":"Morus","espece":"alba"},"id":"98f4dab7f02620e4f30a77a2168fbe555b58181e","geo":{"type":"Point","coordinates":[2.29325938067604,48.82874141911993]},"meta":{"arrondissement":"PARIS 15E ARRDT","adresse":"SQUARE DE LA PORTE DE LA PLAINE / 2 PLACE DES INSURGES DE VARSOVIE"}},{"taille":{"h":5,"p":35},"nom":"Mûrier","info":{"genre":"Morus","espece":"n. sp."},"id":"d6a794bf0de12e1105b0d55e24d36efe1eb4e178","geo":{"type":"Point","coordinates":[2.26867610711037,48.83558281079231]},"meta":{"arrondissement":"PARIS 15E ARRDT","adresse":"TALUS N°09-19"}},{"taille":{"h":8,"p":95},"nom":"Mûrier","info":{"genre":"Morus","espece":"alba","stade_developpement":"Adulte"},"id":"bce4ab55403eecd9a364d8a7befe0e858e3c4f1a","geo":{"type":"Point","coordinates":[2.356403985553869,48.82053248120741]},"meta":{"arrondissement":"PARIS 13E ARRDT","adresse":"RUE DU MOULIN DE LA POINTE"}},{"taille":{"h":5,"p":59},"nom":"Mûrier","info":{"genre":"Morus","espece":"alba","stade_developpement":"Jeune (arbre)Adulte"},"id":"f3a0fd9a7226f453baa2137bfdb097c52fa36c8b","geo":{"type":"Point","coordinates":[2.335284128031334,48.88565199685971]},"meta":{"arrondissement":"PARIS 18E ARRDT","adresse":"RUE DES ABBESSES"}},{"taille":{"h":10,"p":75},"nom":"Mûrier","info":{"genre":"Morus","espece":"alba","stade_developpement":"Adulte"},"id":"ec33a841fb2cb983ef6c134b9a1dc00d2328ae22","geo":{"type":"Point","coordinates":[2.366959176996177,48.853577753071285]},"meta":{"arrondissement":"PARIS 4E ARRDT","adresse":"RUE SAINT ANTOINE"}},{"taille":{"h":11,"p":93},"nom":"Mûrier","info":{"genre":"Morus","espece":"alba","stade_developpement":"Adulte"},"id":"094a708a54882182a578a5095f25f071d91f6f2f","geo":{"type":"Point","coordinates":[2.369685197758927,48.87254276770969]},"meta":{"arrondissement":"PARIS 10E ARRDT","adresse":"AVENUE CLAUDE VELLEFAUX"}},{"taille":{"h":10,"p":105},"nom":"Mûrier","info":{"genre":"Morus","espece":"alba","stade_developpement":"Adulte"},"id":"ad90828a343b521d85fad8fed4ff487f1472a126","geo":{"type":"Point","coordinates":[2.398836496118408,48.88876782022596]},"meta":{"arrondissement":"PARIS 19E ARRDT","adresse":"RUE DE LA GRENADE"}},{"taille":{"h":7,"p":120},"nom":"Mûrier","info":{"genre":"Morus","espece":"alba","stade_developpement":"Adulte"},"id":"9fc545d4eff769991fa42b68ce5da4e2fe1fd5ad","geo":{"type":"Point","coordinates":[2.25647321004839,48.84730799006289]},"meta":{"arrondissement":"PARIS 16E ARRDT","adresse":"SQUARE DES POETES"}},{"taille":{"h":6,"p":60},"nom":"Mûrier","info":{"genre":"Morus","espece":"alba","stade_developpement":"Jeune (arbre)Adulte"},"id":"a85d0766eba58eaf17f3f1c356970aa3655dd070","geo":{"type":"Point","coordinates":[2.381839420402487,48.870572545775055]},"meta":{"arrondissement":"PARIS 20E ARRDT","adresse":"PLACE ALPHONSE ALLAIS"}},{"taille":{"h":7,"p":32},"nom":"Mûrier","info":{"genre":"Morus","espece":"alba","stade_developpement":"Jeune (arbre)"},"id":"7ed70befcccbbd57a1c0a9837b6b1b797ebb6316","geo":{"type":"Point","coordinates":[2.267938304783698,48.85108325207094]},"meta":{"arrondissement":"PARIS 16E ARRDT","adresse":"RUE DE LA SOURCE"}},{"taille":{"h":9,"p":78},"nom":"Mûrier","info":{"genre":"Morus","espece":"alba","stade_developpement":"Adulte"},"id":"0855e4546a9400b77edc1e09efa900928699586f","geo":{"type":"Point","coordinates":[2.369955321759081,48.87130147683635]},"meta":{"arrondissement":"PARIS 10E ARRDT","adresse":"AVENUE PARMENTIER"}},{"taille":{"h":7,"p":95},"nom":"Mûrier","info":{"genre":"Morus","espece":"alba","stade_developpement":"Adulte"},"id":"20b1794cb1457563eb6c497f9a192f32c6d3b0b3","geo":{"type":"Point","coordinates":[2.352931071268703,48.88657311613351]},"meta":{"arrondissement":"PARIS 18E ARRDT","adresse":"SQUARE DU PASSAGE LEON / 20 RUE DES GARDES"}},{"taille":{"h":5,"p":70},"nom":"Mûrier","info":{"genre":"Morus","espece":"n. sp.","stade_developpement":"Jeune (arbre)Adulte"},"id":"c16cf8d93b44b5dc28180c290022607bda56c2e3","geo":{"type":"Point","coordinates":[2.364957024518081,48.89085750805326]},"meta":{"arrondissement":"PARIS 18E ARRDT","adresse":"ECOLE ELEMENTAIRE / 5 RUE TORCY"}},{"taille":{"h":0,"p":0},"nom":"Mûrier","info":{"genre":"Morus","espece":"alba"},"id":"9785806ad34f12e97629ad7eafa9c5a2ef491685","geo":{"type":"Point","coordinates":[2.454763129456366,48.821213640719876]},"meta":{"arrondissement":"BOIS DE VINCENNES","adresse":"ARBORETUM DE L ECOLE DU BREUIL - ROUTE DE LA FERME / ROUTE DE LA PYRAMIDE"}},{"taille":{"h":5,"p":65},"nom":"Mûrier","info":{"genre":"Morus","espece":"alba","stade_developpement":"Jeune (arbre)"},"id":"dc578d19b460a9e7ea30ca33bfd8f7fa997afc1a","geo":{"type":"Point","coordinates":[2.388884730053276,48.90009838058492]},"meta":{"arrondissement":"PARIS 19E ARRDT","adresse":"SQUARE DE LA PORTE DE LA VILLETTE / 22 RUE DU CHEMIN DE FER"}},{"taille":{"h":10,"p":130},"nom":"Mûrier","info":{"genre":"Morus","espece":"alba","stade_developpement":"Adulte"},"id":"bbf952ba8cbc5e1431366be99084ff5305e3c5b3","geo":{"type":"Point","coordinates":[2.373333353718998,48.82084783159811]},"meta":{"arrondissement":"PARIS 13E ARRDT","adresse":"AVENUE JOSEPH BEDIER"}},{"taille":{"h":11,"p":93},"nom":"Mûrier","info":{"genre":"Morus","espece":"alba","stade_developpement":"Adulte"},"id":"af026f9d72de8ca64e48a41038ba580f78b4d220","geo":{"type":"Point","coordinates":[2.370155037327905,48.873105095711274]},"meta":{"arrondissement":"PARIS 10E ARRDT","adresse":"AVENUE CLAUDE VELLEFAUX"}},{"taille":{"h":0,"p":0},"nom":"Mûrier","info":{"genre":"Morus","espece":"alba"},"id":"ee7c88367f3394573bfeb21dfa580f0e004ff666","geo":{"type":"Point","coordinates":[2.454992576472478,48.821082793970696]},"meta":{"arrondissement":"BOIS DE VINCENNES","adresse":"ARBORETUM DE L ECOLE DU BREUIL - ROUTE DE LA FERME / ROUTE DE LA PYRAMIDE"}},{"taille":{"h":8,"p":115},"nom":"Mûrier","info":{"genre":"Morus","espece":"alba","stade_developpement":"Adulte"},"id":"adaf2cf75fe240727b6aa96bd6892279f97ab6e3","geo":{"type":"Point","coordinates":[2.373051292870919,48.820394073746535]},"meta":{"arrondissement":"PARIS 13E ARRDT","adresse":"AVENUE JOSEPH BEDIER"}},{"taille":{"h":4,"p":60},"nom":"Mûrier","info":{"genre":"Morus","espece":"n. sp."},"id":"301183483b57be31af5090b6074fbdba0236db1c","geo":{"type":"Point","coordinates":[2.297769128008402,48.842177445565696]},"meta":{"arrondissement":"PARIS 15E ARRDT","adresse":"SQUARE SAINT LAMBERT / 2 RUE JEAN FORMIGE"}},{"taille":{"h":5,"p":30},"nom":"Mûrier","info":{"genre":"Morus","espece":"alba"},"id":"c1d1432f5596de365b094e898b653077702e8a03","geo":{"type":"Point","coordinates":[2.390860636294018,48.82875876779065]},"meta":{"arrondissement":"PARIS 12E ARRDT","adresse":"TALUS N°35-17"}},{"taille":{"h":8,"p":75},"nom":"Mûrier","info":{"genre":"Morus","espece":"alba","stade_developpement":"Jeune (arbre)Adulte"},"id":"0638facbfe7df743c3d3df6f83b5ba83afe08651","geo":{"type":"Point","coordinates":[2.373338182357399,48.82046873303782]},"meta":{"arrondissement":"PARIS 13E ARRDT","adresse":"AVENUE JOSEPH BEDIER"}},{"taille":{"h":7,"p":45},"nom":"Mûrier","info":{"genre":"Morus","espece":"n. sp.","stade_developpement":"Adulte"},"id":"ef9a92a1104db6bcc5c6fa4cc02ccf528e4c4ab5","geo":{"type":"Point","coordinates":[2.339845440812995,48.8225150401077]},"meta":{"arrondissement":"PARIS 14E ARRDT","adresse":"PARC MONTSOURIS / 28 BOULEVARD JOURDAN"}},{"taille":{"h":8,"p":120},"nom":"Mûrier","info":{"genre":"Morus","espece":"alba","stade_developpement":"Adulte"},"id":"29217cb45559968f866a8afa57bd6147c12895ca","geo":{"type":"Point","coordinates":[2.369709944158921,48.872598962658586]},"meta":{"arrondissement":"PARIS 10E ARRDT","adresse":"AVENUE CLAUDE VELLEFAUX"}},{"taille":{"h":0,"p":86},"nom":"Mûrier","info":{"genre":"Morus","espece":"alba"},"id":"31397c06bf088d2cb8364c980bce4ddac0640054","geo":{"type":"Point","coordinates":[2.374033994345428,48.889635576710916]},"meta":{"arrondissement":"PARIS 19E ARRDT","adresse":"JARDIN ILOT RIQUET"}},{"taille":{"h":7,"p":70},"nom":"Mûrier","info":{"genre":"Morus","espece":"alba"},"id":"c9eeea717e436213475b01d4856fb6f81f36a9c9","geo":{"type":"Point","coordinates":[2.300678861855379,48.83243415798137]},"meta":{"arrondissement":"PARIS 15E ARRDT","adresse":"PARC GEORGES BRASSENS / 2 PLACE JACQUES MARETTE"}},{"taille":{"h":11,"p":85},"nom":"Mûrier","info":{"genre":"Morus","espece":"alba","stade_developpement":"Adulte"},"id":"e26b2246b3939396de911162189c9b34b8363c6e","geo":{"type":"Point","coordinates":[2.371011887052271,48.87016140290878]},"meta":{"arrondissement":"PARIS 10E ARRDT","adresse":"AVENUE PARMENTIER"}},{"taille":{"h":6,"p":100},"nom":"Mûrier","info":{"genre":"Morus","espece":"alba","stade_developpement":"Jeune (arbre)Adulte"},"id":"8f8ebf6ce9e34ced92de46b008159927bf7ca6f6","geo":{"type":"Point","coordinates":[2.32241014163386,48.82788538192976]},"meta":{"arrondissement":"PARIS 14E ARRDT","adresse":"JARDIN LIONEL ASSOUAD / 18 RUE DE CHATILLON"}},{"taille":{"h":5,"p":20},"nom":"Mûrier","info":{"genre":"Morus","espece":"alba","variete":"''Fruitless''"},"id":"ea2b04fb454db8aaa2612b5fffe6642481d5531f","geo":{"type":"Point","coordinates":[2.276401968734227,48.855470036718565]},"meta":{"arrondissement":"PARIS 16E ARRDT","adresse":"RUE DES VIGNES"}},{"taille":{"h":3,"p":70},"nom":"Mûrier","info":{"genre":"Morus","espece":"alba","variete":"''Pendula''"},"id":"90e45bd20d1f840e2cc2215457fbacc01e504fcb","geo":{"type":"Point","coordinates":[2.284626098219584,48.84197032304589]},"meta":{"arrondissement":"PARIS 15E ARRDT","adresse":"HOPITAL BOUCICAUT / 78 RUE DE LA CONVENTION"}},{"taille":{"h":6,"p":15},"nom":"Mûrier","info":{"genre":"Morus","espece":"n. sp.","stade_developpement":"Jeune (arbre)"},"id":"579eca787f05e8abd2eaa5cc5931649107fc9865","geo":{"type":"Point","coordinates":[2.370733114403587,48.9006773240473]},"meta":{"arrondissement":"PARIS 19E ARRDT","adresse":"DECORATION DU ROND POINT PORTE D AUBERVILLIERS / 1X PLACE SKANDERBEG"}},{"taille":{"h":6,"p":60},"nom":"Mûrier","info":{"genre":"Morus","espece":"alba","stade_developpement":"Jeune (arbre)Adulte"},"id":"b347cc566ae925d87c68310ee4b6a5e1b9a4d170","geo":{"type":"Point","coordinates":[2.386677324655029,48.889371906382266]},"meta":{"arrondissement":"PARIS 19E ARRDT","adresse":"JOSEPH KOSMA  (8-10)"}},{"taille":{"h":5,"p":25},"nom":"Mûrier","info":{"genre":"Morus","espece":"n. sp."},"id":"4fd181e5c949029f3cc0b1cd0a381d1aaa2c966f","geo":{"type":"Point","coordinates":[2.27780861163627,48.8332504288214]},"meta":{"arrondissement":"PARIS 15E ARRDT","adresse":"TALUS N°09-02"}},{"taille":{"h":0,"p":0},"nom":"Mûrier","info":{"genre":"Morus","espece":"alba"},"id":"e8d72d413a6d7475725efd4bdb11621f5cee50b4","geo":{"type":"Point","coordinates":[2.45504888364604,48.82122720175303]},"meta":{"arrondissement":"BOIS DE VINCENNES","adresse":"ARBORETUM DE L ECOLE DU BREUIL - ROUTE DE LA FERME / ROUTE DE LA PYRAMIDE"}},{"taille":{"h":2,"p":35},"nom":"Mûrier","info":{"genre":"Morus","espece":"alba","stade_developpement":"Jeune (arbre)","variete":"''Pendula''"},"id":"ab5455465875eb4c4d776f1a2bc1235cedc9cb72","geo":{"type":"Point","coordinates":[2.323273730163157,48.82179225382889]},"meta":{"arrondissement":"PARIS 14E ARRDT","adresse":"SQUARE DU SERMENT DE KOUFRA"}},{"taille":{"h":10,"p":90},"nom":"Mûrier","info":{"genre":"Morus","espece":"alba","stade_developpement":"Adulte"},"id":"19a48c2a4c9da30b00c28052de58b9856574ba07","geo":{"type":"Point","coordinates":[2.402382759309896,48.84165971628613]},"meta":{"arrondissement":"PARIS 12E ARRDT","adresse":"RUE SIBUET"}},{"taille":{"h":5,"p":130},"nom":"Mûrier","info":{"genre":"Morus","espece":"alba","stade_developpement":"Adulte"},"id":"8d7bd385ed6d8c1b1418374fa755c6df5de1319f","geo":{"type":"Point","coordinates":[2.382724423437484,48.87074558583795]},"meta":{"arrondissement":"PARIS 20E ARRDT","adresse":"JARDIN DE LA RUE PALI KAO / 38 RUE PALI KAO"}},{"taille":{"h":0,"p":0},"nom":"Mûrier","info":{"genre":"Morus","espece":"alba","variete":"''Pendula''"},"id":"d2c8d0c7a9bedcb07a7132a670c58b48e39dbcd3","geo":{"type":"Point","coordinates":[2.275962477527507,48.84172055441084]},"meta":{"arrondissement":"PARIS 15E ARRDT","adresse":"PARC ANDRE CITROEN"}},{"taille":{"h":8,"p":95},"nom":"Mûrier","info":{"genre":"Morus","espece":"alba","stade_developpement":"Jeune (arbre)Adulte"},"id":"6b04716d27c64c964e1ba99d4dd6713069edba09","geo":{"type":"Point","coordinates":[2.331225789844175,48.82821663547897]},"meta":{"arrondissement":"PARIS 14E ARRDT","adresse":"RUE DU COMMANDEUR"}},{"taille":{"h":3,"p":54},"nom":"Mûrier","info":{"genre":"Morus","espece":"alba","variete":"''Pendula''"},"id":"2420001de688a426bcb4f18f73f542a73e2ecf5f","geo":{"type":"Point","coordinates":[2.361305456024785,48.820161875007024]},"meta":{"arrondissement":"PARIS 13E ARRDT","adresse":"SQUARE JUAN MIRO"}},{"taille":{"h":11,"p":92},"nom":"Mûrier","info":{"genre":"Morus","espece":"alba","stade_developpement":"Adulte"},"id":"451f02d24262f64c33b0296a9342a918c3e3e20b","geo":{"type":"Point","coordinates":[2.369875478767006,48.872981251732185]},"meta":{"arrondissement":"PARIS 10E ARRDT","adresse":"AVENUE CLAUDE VELLEFAUX"}},{"taille":{"h":5,"p":25},"nom":"Mûrier","info":{"genre":"Morus","espece":"n. sp."},"id":"9f2f87a5c1ccbae14f3f8dfc4db9feff73bb099a","geo":{"type":"Point","coordinates":[2.27795123042102,48.833180868640014]},"meta":{"arrondissement":"PARIS 15E ARRDT","adresse":"TALUS N°09-02"}},{"taille":{"h":10,"p":115},"nom":"Mûrier","info":{"genre":"Morus","espece":"alba","stade_developpement":"Jeune (arbre)Adulte"},"id":"6152bcba23bb2bf8de5e6cb659554eac982ae88a","geo":{"type":"Point","coordinates":[2.409932593089701,48.8674397711238]},"meta":{"arrondissement":"PARIS 20E ARRDT","adresse":"JARDIN D ENFANTS OPAC / 3 RUE VICTOR DEJEANTE"}},{"taille":{"h":8,"p":135},"nom":"Mûrier","info":{"genre":"Morus","espece":"alba","stade_developpement":"Adulte"},"id":"a2d9cfb405f81c1c69f0dd675375ebb3a47cc2df","geo":{"type":"Point","coordinates":[2.353056332030288,48.8860745047039]},"meta":{"arrondissement":"PARIS 18E ARRDT","adresse":"SQUARE DU PASSAGE LEON / 20 RUE DES GARDES"}},{"taille":{"h":13,"p":102},"nom":"Mûrier","info":{"genre":"Morus","espece":"alba","stade_developpement":"Adulte"},"id":"de2f6fe46dfb0a38c55ffe6584a3784c024edfc2","geo":{"type":"Point","coordinates":[2.369807721891365,48.872302732345524]},"meta":{"arrondissement":"PARIS 10E ARRDT","adresse":"AVENUE CLAUDE VELLEFAUX"}},{"taille":{"h":10,"p":110},"nom":"Mûrier","info":{"genre":"Morus","espece":"alba","stade_developpement":"Adulte"},"id":"7c170b1e98651511894716ea6de1f358bfd7dfe1","geo":{"type":"Point","coordinates":[2.398736495362447,48.88854305447694]},"meta":{"arrondissement":"PARIS 19E ARRDT","adresse":"RUE DE LA GRENADE"}},{"taille":{"h":8,"p":120},"nom":"Mûrier","info":{"genre":"Morus","espece":"alba","stade_developpement":"Adulte"},"id":"4ba7add360cde19a1463dcb76ed537e66a236b42","geo":{"type":"Point","coordinates":[2.3006651584936,48.83281891164387]},"meta":{"arrondissement":"PARIS 15E ARRDT","adresse":"PLACE JACQUES MARETTE"}},{"taille":{"h":7,"p":115},"nom":"Mûrier","info":{"genre":"Morus","espece":"alba","stade_developpement":"Adulte"},"id":"1743742ae32fde73fc9828b6b6c936784c246a9c","geo":{"type":"Point","coordinates":[2.352889848199679,48.88649833016864]},"meta":{"arrondissement":"PARIS 18E ARRDT","adresse":"SQUARE DU PASSAGE LEON / 20 RUE DES GARDES"}},{"taille":{"h":12,"p":110},"nom":"Mûrier","info":{"genre":"Morus","espece":"alba","stade_developpement":"Adulte"},"id":"814a0126aff3b0deea92b879f7bd3b282e7ba542","geo":{"type":"Point","coordinates":[2.369889651090102,48.872490432538896]},"meta":{"arrondissement":"PARIS 10E ARRDT","adresse":"AVENUE CLAUDE VELLEFAUX"}},{"taille":{"h":8,"p":75},"nom":"Mûrier","info":{"genre":"Morus","espece":"alba","stade_developpement":"Jeune (arbre)Adulte"},"id":"d4618a6daaa3effcdaa1bdbfcef2092ccdaae105","geo":{"type":"Point","coordinates":[2.28575913954017,48.88489648825351]},"meta":{"arrondissement":"PARIS 17E ARRDT","adresse":"PROMENADE BERNARD LAFAY PR A6"}},{"taille":{"h":0,"p":0},"nom":"Mûrier","info":{"genre":"Morus","espece":"alba"},"id":"9100f299b6be1d33851e785151d03de876ba3ef4","geo":{"type":"Point","coordinates":[2.339229194410133,48.821499734756664]},"meta":{"arrondissement":"PARIS 14E ARRDT","adresse":"PARC MONTSOURIS / 28 BOULEVARD JOURDAN"}},{"taille":{"h":7,"p":126},"nom":"Mûrier","info":{"genre":"Morus","espece":"alba"},"id":"75b7494c5c30df8100b6ceba415c42eb0e65aac4","geo":{"type":"Point","coordinates":[2.362735506965215,48.82055509583916]},"meta":{"arrondissement":"PARIS 13E ARRDT","adresse":"SQUARE SAMUEL BECKETT / 47 RUE GANDON"}},{"taille":{"h":7,"p":90},"nom":"Mûrier","info":{"genre":"Morus","espece":"alba","stade_developpement":"Adulte"},"id":"805b8e9df5e30ed80c41e48d77c32d236156e2b5","geo":{"type":"Point","coordinates":[2.283961203939106,48.85307855096542]},"meta":{"arrondissement":"PARIS 15E ARRDT","adresse":"ALLEE DES CYGNES"}},{"taille":{"h":4,"p":65},"nom":"Mûrier","info":{"genre":"Morus","espece":"alba","stade_developpement":"Jeune (arbre)Adulte"},"id":"d47f1bfcdcdd00772b5d638053c68c87baff3636","geo":{"type":"Point","coordinates":[2.337090540849908,48.88499461072373]},"meta":{"arrondissement":"PARIS 18E ARRDT","adresse":"RUE DES ABBESSES"}},{"taille":{"h":10,"p":63},"nom":"Mûrier","info":{"genre":"Morus","espece":"alba","stade_developpement":"Adulte"},"id":"c634165169ee414bd8e8d15fcf391b79c3339aa8","geo":{"type":"Point","coordinates":[2.369998026983761,48.87274261935932]},"meta":{"arrondissement":"PARIS 10E ARRDT","adresse":"AVENUE CLAUDE VELLEFAUX"}},{"taille":{"h":2,"p":20},"nom":"Mûrier","info":{"genre":"Morus","espece":"alba","variete":"''Pendula''"},"id":"13176ccc8d23667f899335fdc2daae22770912dd","geo":{"type":"Point","coordinates":[2.294981432955226,48.85707197368934]},"meta":{"arrondissement":"PARIS 7E ARRDT","adresse":"JARDIN DU CHAMP DE MARS ET PELOUSES DE L ECOLE MILITAIRE"}},{"taille":{"h":9,"p":104},"nom":"Mûrier","info":{"genre":"Morus","espece":"alba","stade_developpement":"Adulte"},"id":"da222f7f7a30c1d18e19ee22aa032a56c87a0846","geo":{"type":"Point","coordinates":[2.370651638001784,48.87036462138222]},"meta":{"arrondissement":"PARIS 10E ARRDT","adresse":"AVENUE PARMENTIER"}},{"taille":{"h":4,"p":25},"nom":"Mûrier","info":{"genre":"Morus","espece":"alba","variete":"''Fruitless''"},"id":"865bc8ed4aaae2d36b24b7b19bf02bc7a7fa745d","geo":{"type":"Point","coordinates":[2.339161347212438,48.88939100818004]},"meta":{"arrondissement":"PARIS 18E ARRDT","adresse":"CIMETIERE ST VINCENT / AVENUE CAULAINCOURT / DIV 0"}},{"taille":{"h":5,"p":35},"nom":"Mûrier","info":{"genre":"Morus","espece":"alba","stade_developpement":"Jeune (arbre)"},"id":"51820a66edb83ba82a14a27267e3acdda1336a45","geo":{"type":"Point","coordinates":[2.3627884850838,48.85547801566238]},"meta":{"arrondissement":"PARIS 4E ARRDT","adresse":"PLACE DU MARCHE SAINTE CATHERINE"}},{"taille":{"h":12,"p":150},"nom":"Mûrier","info":{"genre":"Morus","espece":"alba","stade_developpement":"Adulte"},"id":"e47b82d15bb517a5e76880461fb3e9304ba5eef1","geo":{"type":"Point","coordinates":[2.277683173648172,48.84031988831218]},"meta":{"arrondissement":"PARIS 15E ARRDT","adresse":"RUE DE LA MONTAGNE DE LA FAGE"}},{"taille":{"h":0,"p":0},"nom":"Mûrier","info":{"genre":"Morus","espece":"n. sp."},"id":"4d0212b595a37f2d22e4438625863bda0bc50553","geo":{"type":"Point","coordinates":[2.4551842683308562,48.82105750480739]},"meta":{"arrondissement":"BOIS DE VINCENNES","adresse":"ARBORETUM DE L ECOLE DU BREUIL - ROUTE DE LA FERME / ROUTE DE LA PYRAMIDE"}},{"taille":{"h":5,"p":20},"nom":"Mûrier","info":{"genre":"Morus","espece":"alba","variete":"''Fruitless''"},"id":"91a84d527e5ee41c2a4eed8e77fe7cf6ecefae48","geo":{"type":"Point","coordinates":[2.370177494077222,48.87099987503867]},"meta":{"arrondissement":"PARIS 10E ARRDT","adresse":"AVENUE PARMENTIER"}},{"taille":{"h":9,"p":82},"nom":"Mûrier","info":{"genre":"Morus","espece":"alba","stade_developpement":"Adulte"},"id":"2caabebe310d8297e4803c39050ebd398d942131","geo":{"type":"Point","coordinates":[2.370217500903835,48.87094513599905]},"meta":{"arrondissement":"PARIS 10E ARRDT","adresse":"AVENUE PARMENTIER"}},{"taille":{"h":15,"p":130},"nom":"Mûrier","info":{"genre":"Morus","espece":"alba","stade_developpement":"Adulte"},"id":"3c12e3ca7bef4c733d75f8bf7c0653176585415f","geo":{"type":"Point","coordinates":[2.353758638266113,48.83894325707876]},"meta":{"arrondissement":"PARIS 5E ARRDT","adresse":"RUE DU FER A MOULIN"}},{"taille":{"h":10,"p":105},"nom":"Mûrier","info":{"genre":"Morus","espece":"alba","stade_developpement":"Jeune (arbre)Adulte"},"id":"5e23a312afc070e3fb9b769d2acafd91bc05a93f","geo":{"type":"Point","coordinates":[2.331360482713193,48.82835263677187]},"meta":{"arrondissement":"PARIS 14E ARRDT","adresse":"RUE DU COMMANDEUR"}},{"taille":{"h":4,"p":35},"nom":"Mûrier","info":{"genre":"Morus","espece":"nigra","stade_developpement":"Jeune (arbre)"},"id":"6ca12137d8a1c886da4533f2fed5801273876fc7","geo":{"type":"Point","coordinates":[2.354849839529618,48.840645033943005]},"meta":{"arrondissement":"PARIS 5E ARRDT","adresse":"CRECHE COLLECTIVE / 11 RUE CENSIER"}},{"taille":{"h":5,"p":45},"nom":"Mûrier","info":{"genre":"Morus","espece":"n. sp.","stade_developpement":"Jeune (arbre)"},"id":"fa9006541d99654451316507b93280fab141fced","geo":{"type":"Point","coordinates":[2.413618305367644,48.85433545686901]},"meta":{"arrondissement":"PARIS 20E ARRDT","adresse":"TALUS N°31-01"}},{"taille":{"h":13,"p":112},"nom":"Mûrier","info":{"genre":"Morus","espece":"alba","stade_developpement":"Adulte"},"id":"46ca1e28359619e9edebd8c2d4f794682cce62a8","geo":{"type":"Point","coordinates":[2.369823939908998,48.872340392019076]},"meta":{"arrondissement":"PARIS 10E ARRDT","adresse":"AVENUE CLAUDE VELLEFAUX"}},{"taille":{"h":5,"p":74},"nom":"Mûrier","info":{"genre":"Morus","espece":"alba","stade_developpement":"Jeune (arbre)Adulte","variete":"''Pendula''"},"id":"842fadc40272c29bec10f0cd49726eeb74db244c","geo":{"type":"Point","coordinates":[2.320526682404439,48.876041302551336]},"meta":{"arrondissement":"PARIS 8E ARRDT","adresse":"SQUARE MARCEL PAGNOL / 12 RUE DE LABORDE"}},{"taille":{"h":0,"p":25},"nom":"Mûrier","info":{"genre":"Morus","espece":"nigra"},"id":"ad15ff607593953f14af576e1789d8f3716cd553","geo":{"type":"Point","coordinates":[2.407877474299435,48.87949514728779]},"meta":{"arrondissement":"PARIS 19E ARRDT","adresse":"JARDIN SERGE GAINSBOURG / 11 AVENUE DE LAPORTE DES LILAS"}},{"taille":{"h":11,"p":96},"nom":"Mûrier","info":{"genre":"Morus","espece":"alba","stade_developpement":"Adulte"},"id":"a7f1dda0f68316ad38455146dc0c885ecd54c7ec","geo":{"type":"Point","coordinates":[2.370775286195212,48.87052392370662]},"meta":{"arrondissement":"PARIS 10E ARRDT","adresse":"AVENUE PARMENTIER"}},{"taille":{"h":7,"p":106},"nom":"Mûrier","info":{"genre":"Morus","espece":"alba","stade_developpement":"Adulte"},"id":"2a90163ffb48a88ddb04d76cb097bfacdd941d62","geo":{"type":"Point","coordinates":[2.370077902140006,48.8711353578133]},"meta":{"arrondissement":"PARIS 10E ARRDT","adresse":"AVENUE PARMENTIER"}},{"taille":{"h":10,"p":110},"nom":"Mûrier","info":{"genre":"Morus","espece":"alba","stade_developpement":"Adulte"},"id":"19b0700f3b9606c3d90062c66731b4f2e04364f5","geo":{"type":"Point","coordinates":[2.373049851785605,48.82077331600558]},"meta":{"arrondissement":"PARIS 13E ARRDT","adresse":"AVENUE JOSEPH BEDIER"}},{"taille":{"h":10,"p":85},"nom":"Mûrier","info":{"genre":"Morus","espece":"alba","stade_developpement":"Adulte"},"id":"d982324816ffd0ef81f77051bbec8868982008d9","geo":{"type":"Point","coordinates":[2.370055128451479,48.871496618778046]},"meta":{"arrondissement":"PARIS 10E ARRDT","adresse":"AVENUE PARMENTIER"}},{"taille":{"h":0,"p":0},"nom":"Mûrier","info":{"genre":"Morus","espece":"alba"},"id":"c0836cf60f15459aa482008948a6acd2ac9dc85d","geo":{"type":"Point","coordinates":[2.312386472621912,48.83731247709016]},"meta":{"arrondissement":"PARIS 15E ARRDT","adresse":"SQUARE PIERRE-ADRIEN DALPAYRAT"}},{"taille":{"h":5,"p":35},"nom":"Mûrier","info":{"genre":"Morus","espece":"alba","variete":"''Pendula''"},"id":"bbabcf0eaa5047696e381adc0c9984b5ce0dca8b","geo":{"type":"Point","coordinates":[2.299469783319729,48.85562232775496]},"meta":{"arrondissement":"PARIS 7E ARRDT","adresse":"JARDIN DU CHAMP DE MARS ET PELOUSES DE L ECOLE MILITAIRE"}},{"taille":{"h":5,"p":27},"nom":"Mûrier","info":{"genre":"Morus","espece":"alba","stade_developpement":"Jeune (arbre)","variete":"''Fruitless''"},"id":"9bf2602493c12c27e4dfd20561cde0b99ec545b9","geo":{"type":"Point","coordinates":[2.3192519724826273,48.89718039975086]},"meta":{"arrondissement":"PARIS 17E ARRDT","adresse":"ECOLE MATERNELLE / 90 BOULEVARD BESSIERES"}},{"taille":{"h":8,"p":90},"nom":"Mûrier","info":{"genre":"Morus","espece":"alba","stade_developpement":"Adulte"},"id":"9584abace6bbac0efd431a83aa7b86a726c82939","geo":{"type":"Point","coordinates":[2.280843157981348,48.86028274913598]},"meta":{"arrondissement":"PARIS 16E ARRDT","adresse":"AVENUE PAUL DOUMER"}},{"taille":{"h":5,"p":20},"nom":"Mûrier","info":{"genre":"Morus","espece":"alba"},"id":"efba79ef144ecc464940f5ed93a8f26f10f2e3f5","geo":{"type":"Point","coordinates":[2.382782473432928,48.87068223911542]},"meta":{"arrondissement":"PARIS 20E ARRDT","adresse":"JARDIN DE LA RUE PALI KAO / 38 RUE PALI KAO"}},{"taille":{"h":0,"p":0},"nom":"Mûrier","info":{"genre":"Morus","espece":"alba"},"id":"afd853bf66f6a3f1b6e792c60f61593421628a38","geo":{"type":"Point","coordinates":[2.454901797189433,48.821124740553394]},"meta":{"arrondissement":"BOIS DE VINCENNES","adresse":"ARBORETUM DE L ECOLE DU BREUIL - ROUTE DE LA FERME / ROUTE DE LA PYRAMIDE"}},{"taille":{"h":10,"p":120},"nom":"Mûrier","info":{"genre":"Morus","espece":"alba","stade_developpement":"Adulte"},"id":"9e419b69b2a51e6ac4241f7d8ea6b7c2157a5f4a","geo":{"type":"Point","coordinates":[2.367021367023581,48.85359656376398]},"meta":{"arrondissement":"PARIS 4E ARRDT","adresse":"RUE SAINT ANTOINE"}},{"taille":{"h":0,"p":100},"nom":"Mûrier","info":{"genre":"Morus","espece":"alba","stade_developpement":"Adulte"},"id":"bea06499578b78734faa85f4c86ae8a95905b603","geo":{"type":"Point","coordinates":[2.383336085636143,48.870837260353014]},"meta":{"arrondissement":"PARIS 20E ARRDT","adresse":"JARDIN DE LA RUE PALI KAO / 38 RUE PALI KAO"}},{"taille":{"h":5,"p":35},"nom":"Mûrier","info":{"genre":"Morus","espece":"alba","stade_developpement":"Jeune (arbre)"},"id":"d278a172267f2ce0c78738045166ac6c9421b5c1","geo":{"type":"Point","coordinates":[2.362750978169588,48.855420059594906]},"meta":{"arrondissement":"PARIS 4E ARRDT","adresse":"PLACE DU MARCHE SAINTE CATHERINE"}},{"taille":{"h":3,"p":60},"nom":"Mûrier","info":{"genre":"Morus","espece":"alba","stade_developpement":"Jeune (arbre)Adulte"},"id":"2d6ca9710c2aaa57e2c74be785ff216810e06708","geo":{"type":"Point","coordinates":[2.262222339318222,48.84718209096715]},"meta":{"arrondissement":"PARIS 16E ARRDT","adresse":"ERLANGER (9-11) CRECHE"}},{"taille":{"h":11,"p":95},"nom":"Mûrier","info":{"genre":"Morus","espece":"alba","stade_developpement":"Adulte"},"id":"e9d4377e9533ed32b5f33265aec6d2a816955ad4","geo":{"type":"Point","coordinates":[2.370315611650258,48.8711441360138]},"meta":{"arrondissement":"PARIS 10E ARRDT","adresse":"AVENUE PARMENTIER"}},{"taille":{"h":5,"p":60},"nom":"Mûrier","info":{"genre":"Morus","espece":"n. sp.","stade_developpement":"Jeune (arbre)Adulte"},"id":"77e1a8b8e47bc0b781a2c48ae2f80fb8b929b658","geo":{"type":"Point","coordinates":[2.413648547317659,48.854199812574635]},"meta":{"arrondissement":"PARIS 20E ARRDT","adresse":"TALUS N°31-01"}},{"taille":{"h":0,"p":35},"nom":"Mûrier","info":{"genre":"Morus","espece":"n. sp."},"id":"8101570fcf3f0c0eb99853d075334ea41fbf9fa6","geo":{"type":"Point","coordinates":[2.280236124068698,48.83236041402526]},"meta":{"arrondissement":"PARIS 15E ARRDT","adresse":"TALUS N°09-00"}},{"taille":{"h":0,"p":100},"nom":"Mûrier","info":{"genre":"Morus","espece":"alba","stade_developpement":"Adulte"},"id":"5439204d251a4fe13befa292bbd971602db5f55a","geo":{"type":"Point","coordinates":[2.383070392282387,48.870779700667235]},"meta":{"arrondissement":"PARIS 20E ARRDT","adresse":"JARDIN DE LA RUE PALI KAO / 38 RUE PALI KAO"}},{"taille":{"h":9,"p":91},"nom":"Mûrier","info":{"genre":"Morus","espece":"alba","stade_developpement":"Adulte"},"id":"b6dc417e0d5c4058119ad1fd50371d230c8af8a1","geo":{"type":"Point","coordinates":[2.369971911613201,48.87320421012155]},"meta":{"arrondissement":"PARIS 10E ARRDT","adresse":"AVENUE CLAUDE VELLEFAUX"}},{"taille":{"h":6,"p":90},"nom":"Mûrier","info":{"genre":"Morus","espece":"n. sp.","stade_developpement":"Jeune (arbre)"},"id":"ed2f56d0de78dd8c0414cd7a83f5065243b24273","geo":{"type":"Point","coordinates":[2.317349973908696,48.8296302302066]},"meta":{"arrondissement":"PARIS 14E ARRDT","adresse":"JACQUIER (23) MAT"}},{"taille":{"h":0,"p":110},"nom":"Mûrier","info":{"genre":"Morus","espece":"alba"},"id":"3b62c4b47a50a94cdf6970521a8f016ddbf9694c","geo":{"type":"Point","coordinates":[2.308477713596186,48.83581983075498]},"meta":{"arrondissement":"PARIS 15E ARRDT","adresse":"SQUARE ALLERAY - ST ARMAND"}},{"taille":{"h":8,"p":42},"info":{"genre":"Morus","stade_developpement":"Adulte"},"id":"64299c20742a69f94db9a04e2213b77d13e55b45","geo":{"type":"Point","coordinates":[2.339221319143583,48.820636951029115]},"meta":{"arrondissement":"PARIS 14E ARRDT","adresse":"PARC MONTSOURIS / 28 BOULEVARD JOURDAN"}},{"taille":{"h":4,"p":62},"nom":"Mûrier","info":{"genre":"Morus","espece":"alba","stade_developpement":"Jeune (arbre)Adulte"},"id":"dabb73429538f2b7bed5ffa0d811b45cbe1d5a0c","geo":{"type":"Point","coordinates":[2.335949646337773,48.88545885361199]},"meta":{"arrondissement":"PARIS 18E ARRDT","adresse":"RUE DES ABBESSES"}},{"taille":{"h":8,"p":112},"nom":"Mûrier","info":{"genre":"Morus","espece":"nigra","stade_developpement":"Adulte"},"id":"9ea47fcd4dff3dc3a5fe1bdd61047e94090d57c3","geo":{"type":"Point","coordinates":[2.34607297330415,48.86471844463181]},"meta":{"arrondissement":"PARIS 2E ARRDT","adresse":"RUE TIQUETONNE"}},{"taille":{"h":4,"p":57},"nom":"Mûrier","info":{"genre":"Morus","espece":"alba","stade_developpement":"Jeune (arbre)Adulte"},"id":"e677d3b6652e8d6d3c24cc56a4ddbf56019e2ad3","geo":{"type":"Point","coordinates":[2.336672027329374,48.88516705950015]},"meta":{"arrondissement":"PARIS 18E ARRDT","adresse":"RUE DES ABBESSES"}},{"taille":{"h":5,"p":82},"nom":"Mûrier","info":{"genre":"Morus","espece":"alba","stade_developpement":"Adulte"},"id":"c29ccebd05936518f70cd7436caed6862aae628b","geo":{"type":"Point","coordinates":[2.286299894213459,48.861745021151165]},"meta":{"arrondissement":"PARIS 16E ARRDT","adresse":"SQUARE YORKTOWN / 1 AVENUE PAUL DOUMER"}},{"taille":{"h":10,"p":135},"nom":"Mûrier","info":{"genre":"Morus","espece":"alba","stade_developpement":"Adulte"},"id":"7d55d6a5d4ea0b76fb3bb56ee984c3486f56d2e5","geo":{"type":"Point","coordinates":[2.344402646889826,48.81962566938115]},"meta":{"arrondissement":"PARIS 14E ARRDT","adresse":"BOULEVARD JOURDAN"}},{"taille":{"h":13,"p":120},"nom":"Mûrier","info":{"genre":"Morus","espece":"alba","stade_developpement":"Adulte"},"id":"b88b66e0ab630a0a6e2761227b4cfed7c73d4408","geo":{"type":"Point","coordinates":[2.370141646764731,48.873594596740446]},"meta":{"arrondissement":"PARIS 10E ARRDT","adresse":"AVENUE CLAUDE VELLEFAUX"}},{"taille":{"h":7,"p":130},"nom":"Mûrier","info":{"genre":"Morus","espece":"n. sp."},"id":"fc244704fa8cf6de28edd19dd0996266b74acba1","geo":{"type":"Point","coordinates":[2.295904337135404,48.842627410527804]},"meta":{"arrondissement":"PARIS 15E ARRDT","adresse":"SQUARE SAINT LAMBERT / 2 RUE JEAN FORMIGE"}},{"taille":{"h":5,"p":25},"nom":"Mûrier","info":{"genre":"Morus","espece":"alba"},"id":"706672ff318fdb09fe723db1b9d403f081cc9e7b","geo":{"type":"Point","coordinates":[2.390887266202457,48.8287145554824]},"meta":{"arrondissement":"PARIS 12E ARRDT","adresse":"TALUS N°35-17"}},{"taille":{"h":4,"p":20},"nom":"Mûrier","info":{"genre":"Morus","espece":"n. sp."},"id":"5417c6bf6ba4c54ee20cd01c5eb29c31612d1175","geo":{"type":"Point","coordinates":[2.348973687998586,48.905579677285495]},"meta":{"arrondissement":"SEINE-SAINT-DENIS","adresse":"CIMETIERE DE SAINT-OUEN NOUV / DIV 1"}},{"taille":{"h":5,"p":75},"nom":"Mûrier","info":{"genre":"Morus","espece":"alba","stade_developpement":"Jeune (arbre)Adulte"},"id":"480efc3bd9c42dfa417820b85e39f07a9653c57f","geo":{"type":"Point","coordinates":[2.402380568172469,48.841380247567]},"meta":{"arrondissement":"PARIS 12E ARRDT","adresse":"RUE SIBUET"}},{"taille":{"h":8,"p":95},"nom":"Mûrier","info":{"genre":"Morus","espece":"alba","stade_developpement":"Adulte"},"id":"ed6be114d588d256ae37b551e2e163a9b1bda08f","geo":{"type":"Point","coordinates":[2.356416537751856,48.82065539504753]},"meta":{"arrondissement":"PARIS 13E ARRDT","adresse":"RUE DU MOULIN DE LA POINTE"}},{"taille":{"h":11,"p":240},"nom":"Mûrier","info":{"genre":"Morus","espece":"alba","stade_developpement":"Adulte"},"id":"6d6360f85f8b7138c1183c4a5b2d29df5197989e","geo":{"type":"Point","coordinates":[2.368252268533851,48.81077258219242]},"meta":{"arrondissement":"VAL-DE-MARNE","adresse":"CIMETIERE D''IVRY / DIV 17"}},{"taille":{"h":10,"p":145},"nom":"Mûrier","info":{"genre":"Morus","espece":"alba","stade_developpement":"Adulte"},"id":"9fee9a8b03d2399d7521dc2d481fb5b38077d0f2","geo":{"type":"Point","coordinates":[2.367209633271428,48.853654749358064]},"meta":{"arrondissement":"PARIS 4E ARRDT","adresse":"RUE SAINT ANTOINE"}},{"taille":{"h":10,"p":87},"nom":"Mûrier","info":{"genre":"Morus","espece":"alba","stade_developpement":"Adulte"},"id":"672dcf9f87db0572fa03a0e465147a6270c179c7","geo":{"type":"Point","coordinates":[2.37019599968506,48.87319922890473]},"meta":{"arrondissement":"PARIS 10E ARRDT","adresse":"AVENUE CLAUDE VELLEFAUX"}},{"taille":{"h":12,"p":82},"nom":"Mûrier","info":{"genre":"Morus","espece":"alba","stade_developpement":"Adulte"},"id":"0474f4b69515b86c697a62840465405e3049039a","geo":{"type":"Point","coordinates":[2.370282836900177,48.87340746833571]},"meta":{"arrondissement":"PARIS 10E ARRDT","adresse":"AVENUE CLAUDE VELLEFAUX"}},{"taille":{"h":7,"p":80},"nom":"Mûrier","info":{"genre":"Morus","espece":"alba"},"id":"7de8277834afb254a668b8351c81e5e5840de1d7","geo":{"type":"Point","coordinates":[2.300549687896928,48.83259965221234]},"meta":{"arrondissement":"PARIS 15E ARRDT","adresse":"PARC GEORGES BRASSENS / 2 PLACE JACQUES MARETTE"}},{"taille":{"h":6,"p":70},"nom":"Mûrier","info":{"genre":"Morus","espece":"n. sp.","stade_developpement":"Jeune (arbre)Adulte"},"id":"3655811a1b9aec06694a121e5dac8092af022865","geo":{"type":"Point","coordinates":[2.268962689976377,48.828675711703056]},"meta":{"arrondissement":"PARIS 15E ARRDT","adresse":"ECOLE POLYVALENTE / 3 BOULEVARD FRERES VOISIN"}},{"taille":{"h":6,"p":70},"nom":"Mûrier","info":{"genre":"Morus","espece":"alba"},"id":"1d2572c4357464a31e452ddd1f98a90ae81e8ed8","geo":{"type":"Point","coordinates":[2.381756497530566,48.83616125470644]},"meta":{"arrondissement":"PARIS 12E ARRDT","adresse":"PARC DE BERCY"}},{"taille":{"h":8,"p":145},"nom":"Mûrier","info":{"genre":"Morus","espece":"n. sp.","stade_developpement":"Adulte"},"id":"018cac157030da8124378f96d906b15358cac035","geo":{"type":"Point","coordinates":[2.391810029444331,48.84092011125287]},"meta":{"arrondissement":"PARIS 12E ARRDT","adresse":"PAUL DUKAS (HALTE GARDERIE) (5)"}},{"taille":{"h":15,"p":160},"nom":"Mûrier","info":{"genre":"Morus","espece":"n. sp.","stade_developpement":"Adulte"},"id":"39e3fd92899fd2697db94bfb1bd67b90f7d26284","geo":{"type":"Point","coordinates":[2.41391210047507,48.8582355248906]},"meta":{"arrondissement":"PARIS 20E ARRDT","adresse":"TALUS N°30-03"}},{"taille":{"h":12,"p":115},"nom":"Mûrier","info":{"genre":"Morus","espece":"alba","stade_developpement":"Adulte"},"id":"1667f9731e48b407f254ceb69a7dc94e96fc7560","geo":{"type":"Point","coordinates":[2.369689873282801,48.87203021531202]},"meta":{"arrondissement":"PARIS 10E ARRDT","adresse":"AVENUE CLAUDE VELLEFAUX"}},{"taille":{"h":0,"p":0},"nom":"Mûrier","info":{"genre":"Morus","espece":"alba"},"id":"8d9d316902bd82ba97936582249a562d9afb2157","geo":{"type":"Point","coordinates":[2.455310171995005,48.82102216650035]},"meta":{"arrondissement":"BOIS DE VINCENNES","adresse":"ARBORETUM DE L ECOLE DU BREUIL - ROUTE DE LA FERME / ROUTE DE LA PYRAMIDE"}},{"taille":{"h":10,"p":165},"nom":"Mûrier","info":{"genre":"Morus","espece":"alba","stade_developpement":"Mature"},"id":"73bef904b7ba24ed82b2b6986e64b94ae496fba8","geo":{"type":"Point","coordinates":[2.373413370711959,48.82086937730797]},"meta":{"arrondissement":"PARIS 13E ARRDT","adresse":"AVENUE JOSEPH BEDIER"}},{"taille":{"h":5,"p":20},"nom":"Mûrier","info":{"genre":"Morus","espece":"n. sp."},"id":"8c09b3bd5f2a145ee1f994751fac932f3f27be5a","geo":{"type":"Point","coordinates":[2.297909549816473,48.84210793919739]},"meta":{"arrondissement":"PARIS 15E ARRDT","adresse":"SQUARE SAINT LAMBERT / 2 RUE JEAN FORMIGE"}},{"taille":{"h":11,"p":12},"nom":"Mûrier","info":{"genre":"Morus","espece":"alba","stade_developpement":"Adulte"},"id":"a9c8e56fb3a5d83955f682d9edc13ecf004de0a5","geo":{"type":"Point","coordinates":[2.353692001233254,48.88652445346286]},"meta":{"arrondissement":"PARIS 18E ARRDT","adresse":"SQUARE DU PASSAGE LEON / 20 RUE DES GARDES"}},{"taille":{"h":8,"p":70},"nom":"Mûrier","info":{"genre":"Morus","espece":"n. sp.","stade_developpement":"Adulte"},"id":"4eb778d85a9b68060370dcd4fbcc73bf1f374444","geo":{"type":"Point","coordinates":[2.331518596392855,48.892067370935685]},"meta":{"arrondissement":"PARIS 18E ARRDT","adresse":"SQUARE CARPEAUX"}},{"taille":{"h":0,"p":25},"nom":"Mûrier","info":{"genre":"Morus","espece":"nigra"},"id":"ee2ef7495cfd18030665cd7877fc86d7012b70ed","geo":{"type":"Point","coordinates":[2.408380918949153,48.87890058155601]},"meta":{"arrondissement":"PARIS 19E ARRDT","adresse":"JARDIN SERGE GAINSBOURG / 11 AVENUE DE LAPORTE DES LILAS"}},{"taille":{"h":2,"p":80},"nom":"Mûrier","info":{"genre":"Morus","espece":"alba","stade_developpement":"Adulte","variete":"''Pendula''"},"id":"d10195e1014b8d46d3af156ae807e4c9b146e115","geo":{"type":"Point","coordinates":[2.262473805369725,48.85535920597475]},"meta":{"arrondissement":"PARIS 16E ARRDT","adresse":"SQUARE HENRY BATAILLE / 66 BOULEVARD SUCHET"}},{"taille":{"h":8,"p":140},"nom":"Mûrier","info":{"genre":"Morus","espece":"alba"},"id":"db0473de110c5ddb26f9902643a9e10ea38773d6","geo":{"type":"Point","coordinates":[2.352088240478442,48.85195195629969]},"meta":{"arrondissement":"PARIS 4E ARRDT","adresse":"SQUARE DE L ILE DE FRANCE / 1 QUAI DE L ARCHEVECHE"}},{"taille":{"h":0,"p":40},"nom":"Mûrier","info":{"genre":"Morus","espece":"n. sp."},"id":"f84cc85515705e394988e7f3b2b5a0e775f96f41","geo":{"type":"Point","coordinates":[2.280284929439588,48.832329283462194]},"meta":{"arrondissement":"PARIS 15E ARRDT","adresse":"TALUS N°09-00"}},{"taille":{"h":2,"p":20},"nom":"Mûrier","info":{"genre":"Morus","espece":"alba","variete":"''Pendula''"},"id":"4f4ab5e927be10cfe21bf9f814a9a17ffd712345","geo":{"type":"Point","coordinates":[2.294988773087771,48.857045234102245]},"meta":{"arrondissement":"PARIS 7E ARRDT","adresse":"JARDIN DU CHAMP DE MARS ET PELOUSES DE L ECOLE MILITAIRE"}},{"taille":{"h":10,"p":70},"nom":"Mûrier","info":{"genre":"Morus","espece":"alba","stade_developpement":"Jeune (arbre)Adulte"},"id":"c740ae132df47536209ac013d9ca6df1899c9003","geo":{"type":"Point","coordinates":[2.362891496566593,48.855380759741955]},"meta":{"arrondissement":"PARIS 4E ARRDT","adresse":"PLACE DU MARCHE SAINTE CATHERINE"}},{"taille":{"h":10,"p":85},"nom":"Mûrier","info":{"genre":"Morus","espece":"alba","stade_developpement":"Adulte"},"id":"82ac90cd7583d81aab4d9d0dd2921ee0986d3a06","geo":{"type":"Point","coordinates":[2.358476518597279,48.8321438824626]},"meta":{"arrondissement":"PARIS 13E ARRDT","adresse":"DECORATION DE LA PLACE DES ALPES / 3 V PLACE DES ALPES"}},{"taille":{"h":5,"p":30},"nom":"Mûrier","info":{"genre":"Morus","espece":"alba"},"id":"215d96183e6466dcf228cdce3a6c3df0ae18d3c0","geo":{"type":"Point","coordinates":[2.390797277287235,48.82876836511708]},"meta":{"arrondissement":"PARIS 12E ARRDT","adresse":"TALUS N°35-17"}},{"taille":{"h":5,"p":55},"nom":"Mûrier","info":{"genre":"Morus","espece":"n. sp.","stade_developpement":"Jeune (arbre)Adulte"},"id":"46a1d4a4edb3f3644f4878bea8a0848329efe3b3","geo":{"type":"Point","coordinates":[2.376101259428673,48.894538801755424]},"meta":{"arrondissement":"PARIS 19E ARRDT","adresse":"ECOLE ELEMENTAIRE A / 15 RUE COLETTE MAGNY"}},{"taille":{"h":4,"p":65},"nom":"Mûrier","info":{"genre":"Morus","espece":"alba","stade_developpement":"Adulte"},"id":"45364ab7b6cf173d9a2aa6cd98228b73444b1318","geo":{"type":"Point","coordinates":[2.28931321201357,48.88441250798281]},"meta":{"arrondissement":"PARIS 17E ARRDT","adresse":"ESPLANADE DU GENERAL CASSO"}},{"taille":{"h":6,"p":175},"nom":"Mûrier","info":{"genre":"Morus","espece":"alba","stade_developpement":"Adulte"},"id":"9278445326d1dd363c4b3a052e6f5e7eb400c01e","geo":{"type":"Point","coordinates":[2.382843667351811,48.87087131646272]},"meta":{"arrondissement":"PARIS 20E ARRDT","adresse":"JARDIN DE LA RUE PALI KAO / 38 RUE PALI KAO"}},{"taille":{"h":10,"p":85},"nom":"Mûrier","info":{"genre":"Morus","espece":"alba","stade_developpement":"Jeune (arbre)Adulte"},"id":"27c0dde3de4570c3a7565eed4c2562a49b530827","geo":{"type":"Point","coordinates":[2.331300889177814,48.82829827806157]},"meta":{"arrondissement":"PARIS 14E ARRDT","adresse":"RUE DU COMMANDEUR"}},{"taille":{"h":3,"p":47},"nom":"Mûrier","info":{"genre":"Morus","espece":"alba","stade_developpement":"Jeune (arbre)Adulte"},"id":"f2b896d0d8a0a4c702e14fcbf3e6b39a7a7ebc6d","geo":{"type":"Point","coordinates":[2.310714956484549,48.88029862056218]},"meta":{"arrondissement":"PARIS 8E ARRDT","adresse":"PARC MONCEAU"}},{"taille":{"h":10,"p":140},"nom":"Mûrier","info":{"genre":"Morus","espece":"alba","stade_developpement":"Adulte"},"id":"bfb01224bf7cb5d03bd098d2560a3533cc5f1c2b","geo":{"type":"Point","coordinates":[2.373479567987956,48.82060491128709]},"meta":{"arrondissement":"PARIS 13E ARRDT","adresse":"AVENUE JOSEPH BEDIER"}},{"taille":{"h":7,"p":176},"nom":"Mûrier","info":{"genre":"Morus","espece":"alba","stade_developpement":"Adulte","variete":"''Macrophylla''"},"id":"4b0eb799533ea7dfac12c79b58643f127c136b35","geo":{"type":"Point","coordinates":[2.253866927380936,48.84718645714644]},"meta":{"arrondissement":"PARIS 16E ARRDT","adresse":"JARDIN DES SERRES D AUTEUIL / 1 AVENUE GORDON BENNETT"}},{"taille":{"h":5,"p":28},"nom":"Mûrier","info":{"genre":"Morus","espece":"alba","stade_developpement":"Jeune (arbre)"},"id":"ed43e1d60e60971d5cbc96a606d5f037178db343","geo":{"type":"Point","coordinates":[2.278801864374251,48.875537493473196]},"meta":{"arrondissement":"PARIS 16E ARRDT","adresse":"TALUS N°16-01"}},{"taille":{"h":13,"p":103},"nom":"Mûrier","info":{"genre":"Morus","espece":"alba","stade_developpement":"Adulte"},"id":"35449aa65df5b12098a009255fa9ab6b93bb0d54","geo":{"type":"Point","coordinates":[2.370523314741017,48.87085960780076]},"meta":{"arrondissement":"PARIS 10E ARRDT","adresse":"AVENUE PARMENTIER"}},{"taille":{"h":8,"p":148},"nom":"Mûrier","info":{"genre":"Morus","espece":"alba","stade_developpement":"Adulte"},"id":"1ddb5d635146bbb00bb08c5493ad31d2269f8dd6","geo":{"type":"Point","coordinates":[2.337660702804083,48.884853468767076]},"meta":{"arrondissement":"PARIS 18E ARRDT","adresse":"RUE DES ABBESSES"}},{"taille":{"h":7,"p":100},"nom":"Mûrier","info":{"genre":"Morus","espece":"alba"},"id":"4ef55c8b66ac712a6d0424a858fc08957a0b1d61","geo":{"type":"Point","coordinates":[2.362781197799495,48.82047628390095]},"meta":{"arrondissement":"PARIS 13E ARRDT","adresse":"SQUARE SAMUEL BECKETT / 47 RUE GANDON"}},{"taille":{"h":7,"p":65},"nom":"Mûrier","info":{"genre":"Morus","espece":"alba"},"id":"382110fdac22ea8c7597af92209c2cd35c750401","geo":{"type":"Point","coordinates":[2.38152613373608,48.8360163092947]},"meta":{"arrondissement":"PARIS 12E ARRDT","adresse":"PARC DE BERCY"}},{"taille":{"h":7,"p":245},"nom":"Mûrier","info":{"genre":"Morus","espece":"alba","stade_developpement":"Adulte"},"id":"2c9400a50fe1c6a1f814adedfd730d05b32b2d27","geo":{"type":"Point","coordinates":[2.44238602785038,48.83959332005242]},"meta":{"arrondissement":"BOIS DE VINCENNES","adresse":"PARC FLORAL DE PARIS / ROUTE DE LA PYRAMIDE"}},{"taille":{"h":4,"p":30},"nom":"Mûrier","info":{"genre":"Morus","espece":"alba","stade_developpement":"Jeune (arbre)"},"id":"732499419ab4472d3b73bb96854de3e00395c32e","geo":{"type":"Point","coordinates":[2.372705860875749,48.820585907250056]},"meta":{"arrondissement":"PARIS 13E ARRDT","adresse":"AVENUE JOSEPH BEDIER"}},{"taille":{"h":0,"p":25},"nom":"Mûrier","info":{"genre":"Morus","espece":"nigra"},"id":"40ed15c99062f6e1ddd02df1a7291667771d74d3","geo":{"type":"Point","coordinates":[2.407560369854322,48.87785213350502]},"meta":{"arrondissement":"PARIS 19E ARRDT","adresse":"JARDIN SERGE GAINSBOURG / 11 AVENUE DE LAPORTE DES LILAS"}},{"taille":{"h":10,"p":92},"nom":"Mûrier","info":{"genre":"Morus","espece":"alba","stade_developpement":"Adulte"},"id":"d21ae9d59bb5a6b79c044b26827c7d192cffd252","geo":{"type":"Point","coordinates":[2.369880408829907,48.87140168239694]},"meta":{"arrondissement":"PARIS 10E ARRDT","adresse":"AVENUE PARMENTIER"}},{"taille":{"h":8,"p":100},"nom":"Mûrier","info":{"genre":"Morus","espece":"alba","stade_developpement":"Adulte"},"id":"9d2abf40cd6aa0f09a2d13a8bca4ef7aeb314d93","geo":{"type":"Point","coordinates":[2.373146635998782,48.82041863197735]},"meta":{"arrondissement":"PARIS 13E ARRDT","adresse":"AVENUE JOSEPH BEDIER"}},{"taille":{"h":8,"p":117},"nom":"Mûrier","info":{"genre":"Morus","espece":"alba","stade_developpement":"Mature"},"id":"f1a2e71ee44bfa69c5e292e7593d7aa02911c637","geo":{"type":"Point","coordinates":[2.361956797008785,48.81995576086785]},"meta":{"arrondissement":"PARIS 13E ARRDT","adresse":"SQUARE SAMUEL BECKETT / 47 RUE GANDON"}},{"taille":{"h":3,"p":10},"nom":"Mûrier","info":{"genre":"Morus","espece":"n. sp.","stade_developpement":"Jeune (arbre)"},"id":"cb42f783e36bc7cbc5ec8b8102389d4d07aa650f","geo":{"type":"Point","coordinates":[2.297935324930048,48.828240403996844]},"meta":{"arrondissement":"PARIS 15E ARRDT","adresse":"SQUARE DU DOCTEUR CALMETTE / 2 RUE JEAN SICARD"}},{"taille":{"h":12,"p":92},"nom":"Mûrier","info":{"genre":"Morus","espece":"alba","stade_developpement":"Adulte"},"id":"ae82ed4febc421884230b2b4e5d10315528f2fbd","geo":{"type":"Point","coordinates":[2.370220751229766,48.87325619716607]},"meta":{"arrondissement":"PARIS 10E ARRDT","adresse":"AVENUE CLAUDE VELLEFAUX"}},{"taille":{"h":0,"p":25},"nom":"Mûrier","info":{"genre":"Morus","espece":"nigra"},"id":"384bcd71797e29d3e64548488d6211a2cf2be157","geo":{"type":"Point","coordinates":[2.407727336179574,48.877942532831526]},"meta":{"arrondissement":"PARIS 19E ARRDT","adresse":"JARDIN SERGE GAINSBOURG / 11 AVENUE DE LAPORTE DES LILAS"}},{"taille":{"h":5,"p":110},"nom":"Mûrier","info":{"genre":"Morus","espece":"alba","stade_developpement":"Jeune (arbre)Adulte"},"id":"a3238a503f38174dea13baf0f0e97c29920f9f01","geo":{"type":"Point","coordinates":[2.3327748369937042,48.833163417110214]},"meta":{"arrondissement":"PARIS 14E ARRDT","adresse":"AVENUE RENE COTY"}},{"taille":{"h":13,"p":160},"nom":"Mûrier","info":{"genre":"Morus","espece":"alba"},"id":"934f864d797b82159a387dd1cff023f82eb5ba4f","geo":{"type":"Point","coordinates":[2.320639397498629,48.851516730512614]},"meta":{"arrondissement":"PARIS 7E ARRDT","adresse":"JARDIN CATHERINE LABOURE / 29 RUE DE BABYLONE"}},{"taille":{"h":0,"p":0},"nom":"Mûrier","info":{"genre":"Morus","espece":"alba"},"id":"113726bebc18f7cffbd3a68a6e922138fff6ad21","geo":{"type":"Point","coordinates":[2.454843884057877,48.82124080116496]},"meta":{"arrondissement":"BOIS DE VINCENNES","adresse":"ARBORETUM DE L ECOLE DU BREUIL - ROUTE DE LA FERME / ROUTE DE LA PYRAMIDE"}},{"taille":{"h":8,"p":100},"nom":"Mûrier","info":{"genre":"Morus","espece":"n. sp.","stade_developpement":"Adulte"},"id":"5ea0b68961c297bc2e01ca081a91a759f31c3dde","geo":{"type":"Point","coordinates":[2.37604871689181,48.89427967726021]},"meta":{"arrondissement":"PARIS 19E ARRDT","adresse":"ECOLE ELEMENTAIRE A / 15 RUE COLETTE MAGNY"}},{"taille":{"h":7,"p":110},"nom":"Mûrier","info":{"genre":"Morus","espece":"alba","stade_developpement":"Adulte"},"id":"d588181fe4aaaf9697d10f3e647a92a494d125a7","geo":{"type":"Point","coordinates":[2.389276809345358,48.900126928242926]},"meta":{"arrondissement":"PARIS 19E ARRDT","adresse":"SQUARE DE LA PORTE DE LA VILLETTE / 22 RUE DU CHEMIN DE FER"}},{"taille":{"h":8,"p":128},"nom":"Mûrier","info":{"genre":"Morus","espece":"alba","stade_developpement":"Adulte"},"id":"22ee7afe42077f933f362ef569d337de7b64d99e","geo":{"type":"Point","coordinates":[2.369500474634548,48.87191007365106]},"meta":{"arrondissement":"PARIS 10E ARRDT","adresse":"AVENUE PARMENTIER"}},{"taille":{"h":10,"p":115},"nom":"Mûrier","info":{"genre":"Morus","espece":"alba","stade_developpement":"Adulte"},"id":"e0eae82a1bcc5fbbdbcb2dfe357953e7462df0fd","geo":{"type":"Point","coordinates":[2.277621950873194,48.84025142718105]},"meta":{"arrondissement":"PARIS 15E ARRDT","adresse":"RUE DE LA MONTAGNE DE LA FAGE"}},{"taille":{"h":10,"p":110},"nom":"Mûrier","info":{"genre":"Morus","espece":"alba","stade_developpement":"Adulte"},"id":"47a19316fc7646ecfd06ffebbfd89da77570f512","geo":{"type":"Point","coordinates":[2.277264813983327,48.83983932722719]},"meta":{"arrondissement":"PARIS 15E ARRDT","adresse":"RUE DE LA MONTAGNE DE LA FAGE"}},{"taille":{"h":7,"p":95},"nom":"Mûrier","info":{"genre":"Morus","espece":"alba","stade_developpement":"Jeune (arbre)Adulte"},"id":"b90e5f8abe1874567eff3b2ede817d6a942e1169","geo":{"type":"Point","coordinates":[2.3049228937602892,48.89088451840891]},"meta":{"arrondissement":"PARIS 17E ARRDT","adresse":"PLACE MAGASINS DE L OPERA COMIQUE"}},{"taille":{"h":10,"p":140},"nom":"Mûrier","info":{"genre":"Morus","espece":"alba","stade_developpement":"Adulte"},"id":"02d42733d3f858c2a32e5f324ca6afcc9350f656","geo":{"type":"Point","coordinates":[2.373239701942758,48.820822994594394]},"meta":{"arrondissement":"PARIS 13E ARRDT","adresse":"AVENUE JOSEPH BEDIER"}},{"taille":{"h":6,"p":40},"nom":"Mûrier","info":{"genre":"Morus","espece":"alba"},"id":"4e7feaac4e763cc83e07fbb715aee12804825b16","geo":{"type":"Point","coordinates":[2.381586411253257,48.83605374674343]},"meta":{"arrondissement":"PARIS 12E ARRDT","adresse":"PARC DE BERCY"}},{"taille":{"h":0,"p":60},"nom":"Mûrier","info":{"genre":"Morus","espece":"n. sp."},"id":"5fcd197f49373cf52b55d911c431207a6b1b7e09","geo":{"type":"Point","coordinates":[2.370806526734341,48.900673024313285]},"meta":{"arrondissement":"PARIS 19E ARRDT","adresse":"DECORATION DU ROND POINT PORTE D AUBERVILLIERS / 1X PLACE SKANDERBEG"}},{"taille":{"h":4,"p":60},"nom":"Mûrier","info":{"genre":"Morus","espece":"alba","stade_developpement":"Jeune (arbre)Adulte"},"id":"d64ece9a68e9464b791eddb9117da2ee17a2a4f1","geo":{"type":"Point","coordinates":[2.382238261907379,48.870679737401375]},"meta":{"arrondissement":"PARIS 20E ARRDT","adresse":"PLACE ALPHONSE ALLAIS"}},{"taille":{"h":0,"p":25},"nom":"Mûrier","info":{"genre":"Morus","espece":"nigra"},"id":"2de3d1a2514759bf173d4edf2232e27c2f88fb21","geo":{"type":"Point","coordinates":[2.408308893721421,48.87940986567322]},"meta":{"arrondissement":"PARIS 19E ARRDT","adresse":"JARDIN SERGE GAINSBOURG / 11 AVENUE DE LAPORTE DES LILAS"}},{"taille":{"h":13,"p":90},"nom":"Mûrier","info":{"genre":"Morus","espece":"alba","stade_developpement":"Adulte"},"id":"244952d9704af0c1622c1959245bbdd82e8a7021","geo":{"type":"Point","coordinates":[2.370860399739833,48.870409660521915]},"meta":{"arrondissement":"PARIS 10E ARRDT","adresse":"AVENUE PARMENTIER"}},{"taille":{"h":8,"p":172},"nom":"Mûrier","info":{"genre":"Morus","espece":"alba","stade_developpement":"Adulte"},"id":"589d6067abd12e911afd31156a06f6ea75119e4d","geo":{"type":"Point","coordinates":[2.33757803065083,48.884945084755564]},"meta":{"arrondissement":"PARIS 18E ARRDT","adresse":"RUE DES ABBESSES"}},{"taille":{"h":7,"p":54},"nom":"Mûrier","info":{"genre":"Morus","espece":"alba","stade_developpement":"Jeune (arbre)Adulte"},"id":"2c0c7cf10d3dc137e89ba56d713b61c9fef24648","geo":{"type":"Point","coordinates":[2.369866607120286,48.87243887816832]},"meta":{"arrondissement":"PARIS 10E ARRDT","adresse":"AVENUE CLAUDE VELLEFAUX"}},{"taille":{"h":6,"p":60},"nom":"Mûrier","info":{"genre":"Morus","espece":"alba"},"id":"b04f53b5f76e1252e3afcc6fcf692c3b04caa39a","geo":{"type":"Point","coordinates":[2.300476513384373,48.83250153408404]},"meta":{"arrondissement":"PARIS 15E ARRDT","adresse":"PARC GEORGES BRASSENS / 2 PLACE JACQUES MARETTE"}},{"taille":{"h":5,"p":65},"nom":"Mûrier","info":{"genre":"Morus","espece":"n. sp.","stade_developpement":"Jeune (arbre)Adulte"},"id":"8778198a3e259b4b68ef8d6d5a9d93bdade56454","geo":{"type":"Point","coordinates":[2.292097799809395,48.88849992397824]},"meta":{"arrondissement":"PARIS 17E ARRDT","adresse":"TALUS N°17-06"}},{"taille":{"h":5,"p":110},"nom":"Mûrier","info":{"genre":"Morus","espece":"n. sp.","stade_developpement":"Jeune (arbre)Adulte"},"id":"70b5b61ca85c5ed71ce6f2454b3a1e48b461ea8a","geo":{"type":"Point","coordinates":[2.41388265211776,48.859373941031826]},"meta":{"arrondissement":"PARIS 20E ARRDT","adresse":"TALUS N°30-03"}},{"taille":{"h":0,"p":0},"nom":"Mûrier","info":{"genre":"Morus","espece":"nigra"},"id":"eb539214f6d79bbfa880dfeb2fe8506a9056a805","geo":{"type":"Point","coordinates":[2.454944288444321,48.82120188441385]},"meta":{"arrondissement":"BOIS DE VINCENNES","adresse":"ARBORETUM DE L ECOLE DU BREUIL - ROUTE DE LA FERME / ROUTE DE LA PYRAMIDE"}},{"taille":{"h":5,"p":40},"nom":"Mûrier","info":{"genre":"Morus","espece":"n. sp.","stade_developpement":"Jeune (arbre)Adulte"},"id":"60cc1cc30bb5cf79a0d8f4e3f4a74ca7039b6c3b","geo":{"type":"Point","coordinates":[2.4135312790204972,48.85430100804439]},"meta":{"arrondissement":"PARIS 20E ARRDT","adresse":"TALUS N°31-01"}},{"taille":{"h":10,"p":83},"nom":"Mûrier","info":{"genre":"Morus","espece":"alba","stade_developpement":"Adulte"},"id":"880506c3df958f20d577dbb68a1435282b164dab","geo":{"type":"Point","coordinates":[2.370393698861556,48.87070677608847]},"meta":{"arrondissement":"PARIS 10E ARRDT","adresse":"AVENUE PARMENTIER"}},{"taille":{"h":10,"p":90},"nom":"Mûrier","info":{"genre":"Morus","espece":"alba","stade_developpement":"Jeune (arbre)Adulte"},"id":"8ff1dd3513d2e7dea5dcbc7566111023516a8deb","geo":{"type":"Point","coordinates":[2.398730057897485,48.88885134530558]},"meta":{"arrondissement":"PARIS 19E ARRDT","adresse":"RUE DE LA GRENADE"}},{"taille":{"h":5,"p":60},"nom":"Mûrier","info":{"genre":"Morus","espece":"n. sp.","stade_developpement":"Jeune (arbre)Adulte"},"id":"04e5e7560ecfbe78f73c978fe0e86cb5b7b6c86c","geo":{"type":"Point","coordinates":[2.376161682697779,48.89437475716057]},"meta":{"arrondissement":"PARIS 19E ARRDT","adresse":"ECOLE ELEMENTAIRE A / 15 RUE COLETTE MAGNY"}},{"taille":{"h":5,"p":60},"nom":"Mûrier","info":{"genre":"Morus","espece":"nigra","stade_developpement":"Jeune (arbre)Adulte"},"id":"4bf7777c5a461ed24cb8afb46e66e925657c5dde","geo":{"type":"Point","coordinates":[2.41201202234877,48.84296560757775]},"meta":{"arrondissement":"PARIS 12E ARRDT","adresse":"CENTRE SPORTIF CARNOT / 26 BOULEVARD CARNOT"}},{"taille":{"h":10,"p":115},"nom":"Mûrier","info":{"genre":"Morus","espece":"alba","stade_developpement":"Adulte"},"id":"a61be0b77e97a0c0e0be7dcce1c1347d0b4671ca","geo":{"type":"Point","coordinates":[2.372756151757335,48.82069633590376]},"meta":{"arrondissement":"PARIS 13E ARRDT","adresse":"AVENUE JOSEPH BEDIER"}},{"taille":{"h":8,"p":90},"nom":"Mûrier","info":{"genre":"Morus","espece":"alba","stade_developpement":"Adulte"},"id":"f89712fa6c2262520fc8034025d6f2efc5de8b2a","geo":{"type":"Point","coordinates":[2.358494090037214,48.832046637858156]},"meta":{"arrondissement":"PARIS 13E ARRDT","adresse":"DECORATION DE LA PLACE DES ALPES / 3 V PLACE DES ALPES"}},{"taille":{"h":3,"p":55},"nom":"Mûrier","info":{"genre":"Morus","espece":"alba","stade_developpement":"Jeune (arbre)","variete":"''Pendula''"},"id":"58db051140829d7de85f0d396b0bb946ceeef0d2","geo":{"type":"Point","coordinates":[2.323237945001355,48.821857679204236]},"meta":{"arrondissement":"PARIS 14E ARRDT","adresse":"SQUARE DU SERMENT DE KOUFRA"}},{"taille":{"h":5,"p":62},"nom":"Mûrier","info":{"genre":"Morus","espece":"alba","stade_developpement":"Jeune (arbre)Adulte","variete":"''Pendula''"},"id":"82eb437f420789719236f0f014b360e94ebc7e91","geo":{"type":"Point","coordinates":[2.2706061417895143,48.8581345170648]},"meta":{"arrondissement":"PARIS 16E ARRDT","adresse":"JARDIN DU RANELAGH"}},{"taille":{"h":15,"p":170},"nom":"Mûrier","info":{"genre":"Morus","espece":"alba","stade_developpement":"Adulte"},"id":"74ed6baf51c15a6883ad56dc6bc6aa487b7a37a3","geo":{"type":"Point","coordinates":[2.407466113923071,48.88029683178672]},"meta":{"arrondissement":"PARIS 19E ARRDT","adresse":"AVENUE DU BELVEDERE"}},{"taille":{"h":8,"p":90},"nom":"Mûrier","info":{"genre":"Morus","espece":"alba","stade_developpement":"Adulte"},"id":"4bfcff147004afb338c81d6d7b4ae16dd32e9ede","geo":{"type":"Point","coordinates":[2.373190970640461,48.82052835470215]},"meta":{"arrondissement":"PARIS 13E ARRDT","adresse":"AVENUE JOSEPH BEDIER"}},{"taille":{"h":8,"p":90},"nom":"Mûrier","info":{"genre":"Morus","espece":"alba","stade_developpement":"Adulte"},"id":"983cffc4bdca8e66b7b6c3d7a0fb189d043a268f","geo":{"type":"Point","coordinates":[2.277364889739811,48.838753435845085]},"meta":{"arrondissement":"PARIS 15E ARRDT","adresse":"RUE DE LA MONTAGNE DE LA FAGE"}},{"taille":{"h":5,"p":110},"info":{"genre":"Morus","stade_developpement":"Adulte"},"id":"288c96a5976f0950c094e2845a0f134fcd447b72","geo":{"type":"Point","coordinates":[2.367715021730556,48.8491317460478]},"meta":{"arrondissement":"PARIS 12E ARRDT","adresse":"JARDIN DU PORT DE L ARSENAL / 11 BOULEVARD DE LA BASTILLE"}},{"taille":{"h":0,"p":25},"nom":"Mûrier","info":{"genre":"Morus","espece":"nigra"},"id":"45c59ca17b12fe09134ff74fc4df03a641d3fea7","geo":{"type":"Point","coordinates":[2.407795426349018,48.87783719853807]},"meta":{"arrondissement":"PARIS 19E ARRDT","adresse":"JARDIN SERGE GAINSBOURG / 11 AVENUE DE LAPORTE DES LILAS"}},{"taille":{"h":5,"p":60},"nom":"Mûrier","info":{"genre":"Morus","espece":"n. sp.","stade_developpement":"Jeune (arbre)Adulte"},"id":"81bd030f5b1d969b976df2ce52be3ca92edd4662","geo":{"type":"Point","coordinates":[2.4137000462399,48.85398332212153]},"meta":{"arrondissement":"PARIS 20E ARRDT","adresse":"TALUS N°31-01"}},{"taille":{"h":5,"p":20},"nom":"Mûrier","info":{"genre":"Morus","espece":"alba","variete":"''Fruitless''"},"id":"85ee04d05d8f0d081a4c13220570391f0fc2bb35","geo":{"type":"Point","coordinates":[2.369702352686938,48.900181004520626]},"meta":{"arrondissement":"PARIS 18E ARRDT","adresse":"ECOLE MATERNELLE / 2 RUE CHARLES HERMITE"}},{"taille":{"h":5,"p":52},"nom":"Mûrier","info":{"genre":"Morus","espece":"n. sp."},"id":"d418ce9213d618a29e1f8f30fd7fa37b8ac54674","geo":{"type":"Point","coordinates":[2.357736266129962,48.82243005812952]},"meta":{"arrondissement":"PARIS 13E ARRDT","adresse":"JARDIN PAUL NIZAN"}},{"taille":{"h":0,"p":52},"nom":"Mûrier","info":{"genre":"Morus","espece":"n. sp."},"id":"a0c56514736922ce5a0a69a445dec26c075cf28d","geo":{"type":"Point","coordinates":[2.370727764102446,48.90082202244595]},"meta":{"arrondissement":"PARIS 19E ARRDT","adresse":"DECORATION DU ROND POINT PORTE D AUBERVILLIERS / 1X PLACE SKANDERBEG"}},{"taille":{"h":10,"p":95},"nom":"Mûrier","info":{"genre":"Morus","espece":"alba","stade_developpement":"Adulte"},"id":"6e10cafb17262df3e98666854b9fc22c76a26743","geo":{"type":"Point","coordinates":[2.402382558736582,48.84159165181344]},"meta":{"arrondissement":"PARIS 12E ARRDT","adresse":"RUE SIBUET"}},{"taille":{"h":10,"p":90},"nom":"Mûrier","info":{"genre":"Morus","espece":"alba","stade_developpement":"Adulte"},"id":"14f3ed44d5a8a30a66134bb34790c76277b64baa","geo":{"type":"Point","coordinates":[2.362679369826087,48.8553065398398]},"meta":{"arrondissement":"PARIS 4E ARRDT","adresse":"PLACE DU MARCHE SAINTE CATHERINE"}},{"taille":{"h":5,"p":62},"nom":"Mûrier","info":{"genre":"Morus","espece":"alba","variete":"''Macrophylla''"},"id":"e6e831ee42a7853902ec33982ac3ff7bfae78393","geo":{"type":"Point","coordinates":[2.392396707661645,48.87809023092017]},"meta":{"arrondissement":"PARIS 19E ARRDT","adresse":"SQUARE DE LA RUE COMPANS"}},{"taille":{"h":10,"p":94},"nom":"Mûrier","info":{"genre":"Morus","espece":"alba","stade_developpement":"Adulte"},"id":"6457281363e7b3288d6c193aca96028178b6dee5","geo":{"type":"Point","coordinates":[2.370082002124063,48.873456819412006]},"meta":{"arrondissement":"PARIS 10E ARRDT","adresse":"AVENUE CLAUDE VELLEFAUX"}},{"taille":{"h":5,"p":20},"nom":"Mûrier","info":{"genre":"Morus","espece":"alba","variete":"''Fruitless''"},"id":"97f7cb79c868777873ddccc2257421a73f6dd7ab","geo":{"type":"Point","coordinates":[2.370128977910741,48.87106607181506]},"meta":{"arrondissement":"PARIS 10E ARRDT","adresse":"AVENUE PARMENTIER"}},{"taille":{"h":15,"p":145},"nom":"Mûrier","info":{"genre":"Morus","espece":"alba","stade_developpement":"Adulte"},"id":"285d1c9c99a4c3205e748f9e110e32e4094228a0","geo":{"type":"Point","coordinates":[2.398780621470533,48.889075008424385]},"meta":{"arrondissement":"PARIS 19E ARRDT","adresse":"RUE DE LA GRENADE"}},{"taille":{"h":10,"p":110},"nom":"Mûrier","info":{"genre":"Morus","espece":"alba","stade_developpement":"Adulte"},"id":"902d130bb3aae96c594eb398e7aa55cbeb8f6bad","geo":{"type":"Point","coordinates":[2.373559597531241,48.820626519927615]},"meta":{"arrondissement":"PARIS 13E ARRDT","adresse":"AVENUE JOSEPH BEDIER"}},{"taille":{"h":3,"p":50},"nom":"Mûrier","info":{"genre":"Morus","espece":"alba","stade_developpement":"Adulte"},"id":"e4c1f19acfb50942f42ac79f6af04a4eb2aa8c74","geo":{"type":"Point","coordinates":[2.288956878878283,48.884359058290265]},"meta":{"arrondissement":"PARIS 17E ARRDT","adresse":"ESPLANADE DU GENERAL CASSO"}},{"taille":{"h":10,"p":120},"nom":"Mûrier","info":{"genre":"Morus","espece":"alba","stade_developpement":"Adulte"},"id":"6c2cb5f66c888ac21990d0944896a5ec8db2379f","geo":{"type":"Point","coordinates":[2.398720576123627,48.88876071810739]},"meta":{"arrondissement":"PARIS 19E ARRDT","adresse":"RUE DE LA GRENADE"}},{"taille":{"h":7,"p":72},"info":{"genre":"Morus","stade_developpement":"Adulte"},"id":"ea1daa68e80c107de67687e1230f2e5f52359bde","geo":{"type":"Point","coordinates":[2.339972374477234,48.82210040714191]},"meta":{"arrondissement":"PARIS 14E ARRDT","adresse":"PARC MONTSOURIS / 28 BOULEVARD JOURDAN"}},{"taille":{"h":5,"p":28},"nom":"Mûrier","info":{"genre":"Morus","espece":"alba","stade_developpement":"Jeune (arbre)"},"id":"44a633c8362cd47d373fdce5686f99e3b070d726","geo":{"type":"Point","coordinates":[2.276479531937339,48.85542391890654]},"meta":{"arrondissement":"PARIS 16E ARRDT","adresse":"RUE DES VIGNES"}},{"taille":{"h":7,"p":100},"nom":"Mûrier","info":{"genre":"Morus","espece":"n. sp."},"id":"14682988415c0608e5dc0351a7c39912240d9349","geo":{"type":"Point","coordinates":[2.297954814044915,48.84227585605087]},"meta":{"arrondissement":"PARIS 15E ARRDT","adresse":"SQUARE SAINT LAMBERT / 2 RUE JEAN FORMIGE"}},{"taille":{"h":11,"p":103},"nom":"Mûrier","info":{"genre":"Morus","espece":"alba","stade_developpement":"Adulte"},"id":"41ba61f0b2e36a4d735c37485814851d519b8852","geo":{"type":"Point","coordinates":[2.370110166763198,48.87352580278299]},"meta":{"arrondissement":"PARIS 10E ARRDT","adresse":"AVENUE CLAUDE VELLEFAUX"}},{"taille":{"h":6,"p":70},"nom":"Mûrier","info":{"genre":"Morus","espece":"n. sp.","stade_developpement":"Jeune (arbre)Adulte"},"id":"b9fdf7f122ccc68be01cac54ba17a82113df33d8","geo":{"type":"Point","coordinates":[2.376177157451579,48.8945038629437]},"meta":{"arrondissement":"PARIS 19E ARRDT","adresse":"ECOLE ELEMENTAIRE A / 15 RUE COLETTE MAGNY"}},{"taille":{"h":6,"p":80},"nom":"Mûrier","info":{"genre":"Morus","espece":"n. sp.","stade_developpement":"Jeune (arbre)Adulte"},"id":"e29a335d901ab4f1af0c8332686e4c0d45bba7da","geo":{"type":"Point","coordinates":[2.268937998902491,48.8286354663242]},