[{"taille":{"h":13,"p":95},"nom":"Robinier","info":{"genre":"Robinia","espece":"pseudoacacia","stade_developpement":"Jeune (arbre)Adulte","variete":"''Bessoniana''"},"id":"7176d2fa68045e0e15433bd0d992db5802e33103","geo":{"type":"Point","coordinates":[2.347963327462407,48.89942620960998]},"meta":{"arrondissement":"PARIS 18E ARRDT","adresse":"RUE JEAN COCTEAU"}},{"taille":{"h":14,"p":150},"nom":"Robinier","info":{"genre":"Robinia","espece":"pseudoacacia","stade_developpement":"Adulte"},"id":"acb5b07e06cb36c91d49b1f0dc1a2e183330dd64","geo":{"type":"Point","coordinates":[2.447400190577271,48.83364990774195]},"meta":{"arrondissement":"BOIS DE VINCENNES","adresse":"INSEP / AVENUE DU TREMBLAY"}},{"taille":{"h":7,"p":70},"nom":"Robinier","info":{"genre":"Robinia","espece":"pseudoacacia","stade_developpement":"Jeune (arbre)Adulte","variete":"''Frisia''"},"id":"2d5f43ef0811fc9b0d1da54d0de80be30afca389","geo":{"type":"Point","coordinates":[2.412891369060042,48.86236182318517]},"meta":{"arrondissement":"PARIS 20E ARRDT","adresse":"JARDIN D IMMEUBLES DE LA PORTE DE BAGNOLET / 29-31 RUE HENRI DUVERNOIS"}},{"taille":{"h":5,"p":65},"nom":"Robinier","info":{"genre":"Robinia","espece":"pseudoacacia","stade_developpement":"Jeune (arbre)Adulte"},"id":"d43d78109d9fc991effa213dffc527b9b605117a","geo":{"type":"Point","coordinates":[2.375130261419022,48.88047750445525]},"meta":{"arrondissement":"PARIS 19E ARRDT","adresse":"AVENUE SECRETAN"}},{"taille":{"h":7,"p":80},"nom":"Robinier","info":{"genre":"Robinia","espece":"pseudoacacia","stade_developpement":"Jeune (arbre)","variete":"''Bessoniana''"},"id":"f9b9eb93fdac40d5b98f8354fa18a85c69217c3c","geo":{"type":"Point","coordinates":[2.3449258844749,48.89942268340634]},"meta":{"arrondissement":"PARIS 18E ARRDT","adresse":"RUE FRANCIS DE CROISSET"}},{"taille":{"h":10,"p":105},"nom":"Robinier","info":{"genre":"Robinia","espece":"pseudoacacia"},"id":"201e4fc540dd4b42c1b18e4cf8033dc1684f10bf","geo":{"type":"Point","coordinates":[2.255095161637545,48.84818420719707]},"meta":{"arrondissement":"PARIS 16E ARRDT","adresse":"TALUS N°12-01"}},{"taille":{"h":14,"p":75},"nom":"Robinier","info":{"genre":"Robinia","espece":"pseudoacacia","stade_developpement":"Jeune (arbre)Adulte","variete":"''Unifolia''"},"id":"22b3fd1f7c7ee6907e73cfd8e7f913cd93faeca4","geo":{"type":"Point","coordinates":[2.341951202814861,48.885207054568966]},"meta":{"arrondissement":"PARIS 18E ARRDT","adresse":"RUE CHAPPE"}},{"taille":{"h":5,"p":20},"nom":"Robinier","info":{"genre":"Robinia","espece":"pseudoacacia"},"id":"dfd7d4a6184f238834d552966f97d826cc6a0586","geo":{"type":"Point","coordinates":[2.271813330203609,48.86814154167514]},"meta":{"arrondissement":"PARIS 16E ARRDT","adresse":"CENTRE SPORTIF HENRY DE MONTHERLANT / 32 BOULEVARD LANNES"}},{"taille":{"h":7,"p":65},"nom":"Robinier","info":{"genre":"Robinia","espece":"pseudoacacia","stade_developpement":"Jeune (arbre)Adulte"},"id":"bc925f3110f55798d057adadc075aebec0d4e3b4","geo":{"type":"Point","coordinates":[2.290745299967658,48.8870163505624]},"meta":{"arrondissement":"PARIS 17E ARRDT","adresse":"TALUS N°17-07"}},{"taille":{"h":12,"p":200},"nom":"Robinier","info":{"genre":"Robinia","espece":"pseudoacacia","stade_developpement":"Mature"},"id":"08f83f8ca8b9af0504591c4e80358f03ddb8c387","geo":{"type":"Point","coordinates":[2.32815541847745,48.81977655541917]},"meta":{"arrondissement":"PARIS 14E ARRDT","adresse":"CENTRE SPORTIF ELISABETH / 11 AVENUE PAUL APPELL"}},{"taille":{"h":15,"p":150},"nom":"Robinier","info":{"genre":"Robinia","espece":"pseudoacacia","stade_developpement":"Adulte"},"id":"1da9358a424b7fd308b5ebac0be47a623f8850d7","geo":{"type":"Point","coordinates":[2.412434269418591,48.85510717933923]},"meta":{"arrondissement":"PARIS 20E ARRDT","adresse":"CENTRE SPORTIF DOCTEURS DEJERINE / 36 RUE DES DOCTEURS DEJERINE"}},{"taille":{"h":10,"p":95},"nom":"Robinier","info":{"genre":"Robinia","espece":"pseudoacacia"},"id":"0305f2487a866b0b66c78fd5fc60987b624d32c1","geo":{"type":"Point","coordinates":[2.356169724961607,48.816754529008065]},"meta":{"arrondissement":"PARIS 13E ARRDT","adresse":"TALUS N°03-01"}},{"taille":{"h":10,"p":65},"nom":"Robinier","info":{"genre":"Robinia","espece":"pseudoacacia"},"id":"2920350f05cbd69734e389d504d7109eced4dd01","geo":{"type":"Point","coordinates":[2.274220041440901,48.87287831933438]},"meta":{"arrondissement":"PARIS 16E ARRDT","adresse":"TALUS N°15-10"}},{"taille":{"h":5,"p":40},"nom":"Robinier","info":{"genre":"Robinia","espece":"pseudoacacia","stade_developpement":"Jeune (arbre)","variete":"''Bessoniana''"},"id":"30bb0f73b90852eed4167bba500827b742076aab","geo":{"type":"Point","coordinates":[2.364193807583741,48.84946834019792]},"meta":{"arrondissement":"PARIS 4E ARRDT","adresse":"BOULEVARD MORLAND"}},{"taille":{"h":16,"p":150},"nom":"Robinier","info":{"genre":"Robinia","espece":"pseudoacacia","stade_developpement":"Adulte","variete":"''Bessoniana''"},"id":"55c4e463760463d99676a3338d938f6234c75b67","geo":{"type":"Point","coordinates":[2.398881631807376,48.8750388854159]},"meta":{"arrondissement":"PARIS 20E ARRDT","adresse":"RUE DU TELEGRAPHE"}},{"taille":{"h":5,"p":70},"nom":"Robinier","info":{"genre":"Robinia","espece":"pseudoacacia","stade_developpement":"Jeune (arbre)Adulte"},"id":"d60b559cc1dc7353c827b6d950533c7377a57242","geo":{"type":"Point","coordinates":[2.374208670120033,48.88088884646813]},"meta":{"arrondissement":"PARIS 19E ARRDT","adresse":"AVENUE SECRETAN"}},{"taille":{"h":11,"p":94},"nom":"Robinier","info":{"genre":"Robinia","espece":"pseudoacacia","stade_developpement":"Jeune (arbre)Adulte","variete":"''Sandraudiga''"},"id":"5f2d7ce7862015da30596505f7e88ea3c02e0988","geo":{"type":"Point","coordinates":[2.314452120398584,48.89091326506005]},"meta":{"arrondissement":"PARIS 17E ARRDT","adresse":"PARC CLICHY-BATIGNOLLES-MARTIN LUTHER KING"}},{"taille":{"h":5,"p":65},"nom":"Robinier","info":{"genre":"Robinia","espece":"pseudoacacia","stade_developpement":"Mature","variete":"''Umbraculifera''"},"id":"d45297ff8f552242c22457406bebd48600ba144c","geo":{"type":"Point","coordinates":[2.343459824434083,48.8860943940447]},"meta":{"arrondissement":"PARIS 18E ARRDT","adresse":"SQUARE LOUISE MICHEL / 6 PLACE SAINT PIERRE"}},{"taille":{"h":10,"p":120},"nom":"Robinier","info":{"genre":"Robinia","espece":"pseudoacacia","stade_developpement":"Adulte"},"id":"093dc0bc40b9ca0d1d08d7e48408d5126537ac6b","geo":{"type":"Point","coordinates":[2.310920352974126,48.83279692451996]},"meta":{"arrondissement":"PARIS 14E ARRDT","adresse":"SQUARE HENRI ET ACHILLE DUCHENE / 145 RUE VERCINGETORIX"}},{"taille":{"h":0,"p":140},"nom":"Robinier","info":{"genre":"Robinia","espece":"pseudoacacia"},"id":"90839b9359931debb1d98b1dff9ea93c19e8eaa2","geo":{"type":"Point","coordinates":[2.400751907718691,48.88244924390213]},"meta":{"arrondissement":"PARIS 19E ARRDT","adresse":"PROMENADE AMALIA RODRIGUES / 9 RUE DES MARCHAIS"}},{"taille":{"h":0,"p":25},"nom":"Robinier","info":{"genre":"Robinia","espece":"pseudoacacia","stade_developpement":"Adulte","variete":"''Bessoniana''"},"id":"f5e850ff9571c9bc17ee06b0b37caf533fe7d9df","geo":{"type":"Point","coordinates":[2.391763539678005,48.86673194322783]},"meta":{"arrondissement":"PARIS 20E ARRDT","adresse":"SQUARE SERGENT AURELIE SALEL / 13 RUE SORBIER"}},{"taille":{"h":0,"p":61},"nom":"Robinier","info":{"genre":"Robinia","espece":"pseudoacacia"},"id":"aeffcd620bffeea014f06d148bebe1670c5b074f","geo":{"type":"Point","coordinates":[2.273160632565306,48.82941367147549]},"meta":{"arrondissement":"PARIS 15E ARRDT","adresse":"PARC OMNISPORT SUZANNE LENGLEN / 7 BOULEVARD DES FRERES VOISIN"}},{"taille":{"h":15,"p":240},"nom":"Robinier","info":{"genre":"Robinia","espece":"pseudoacacia"},"id":"5c4de11c8a8dcbb2b1d689a5ef2bc3871ab64b59","geo":{"type":"Point","coordinates":[2.301407522145805,48.82615063903791]},"meta":{"arrondissement":"PARIS 15E ARRDT","adresse":"SQUARE DE LA PORTE DE BRANCION / 5 AVENUE DE LA PORTE BRANCION"}},{"taille":{"h":18,"p":165},"nom":"Robinier","info":{"genre":"Robinia","espece":"pseudoacacia","stade_developpement":"Adulte"},"id":"175cbb1d17929c8eeb731721b8b00ca3cf975864","geo":{"type":"Point","coordinates":[2.39457962097808,48.86110512925183]},"meta":{"arrondissement":"PARIS 20E ARRDT","adresse":"CIMETIERE DU PERE LACHAISE / DIV 24"}},{"taille":{"h":10,"p":105},"nom":"Robinier","info":{"genre":"Robinia","espece":"pseudoacacia","stade_developpement":"Adulte","variete":"''Unifolia''"},"id":"1cfcb30df9964d7be507ada524f97dbbd8e899bc","geo":{"type":"Point","coordinates":[2.335626648257883,48.899993642462896]},"meta":{"arrondissement":"PARIS 18E ARRDT","adresse":"AVENUE DE LA PORTE DE MONTMARTRE"}},{"taille":{"h":5,"p":35},"nom":"Robinier","info":{"genre":"Robinia","espece":"pseudoacacia","stade_developpement":"Jeune (arbre)","variete":"''Bessoniana''"},"id":"d1a07ee1ffa87520dcdd2fad36bd6404d1a4ffce","geo":{"type":"Point","coordinates":[2.364953192964007,48.84797462114495]},"meta":{"arrondissement":"PARIS 4E ARRDT","adresse":"BOULEVARD MORLAND"}},{"taille":{"h":10,"p":60},"nom":"Robinier","info":{"genre":"Robinia","espece":"pseudoacacia","stade_developpement":"Jeune (arbre)Adulte"},"id":"d8cba69a9e85abc72a280e800ccbc8b3ea28b978","geo":{"type":"Point","coordinates":[2.35888394203045,48.83580117384259]},"meta":{"arrondissement":"PARIS 13E ARRDT","adresse":"BOULEVARD DE L HOPITAL"}},{"taille":{"h":8,"p":68},"nom":"Robinier","info":{"genre":"Robinia","espece":"pseudoacacia","stade_developpement":"Jeune (arbre)Adulte"},"id":"cb394d9972ed5b2f9d7c69b65f2f11f8acf367a5","geo":{"type":"Point","coordinates":[2.360672297276253,48.90056905735982]},"meta":{"arrondissement":"PARIS 18E ARRDT","adresse":"TALUS N°23-11"}},{"taille":{"h":7,"p":82},"nom":"Robinier","info":{"genre":"Robinia","espece":"pseudoacacia","stade_developpement":"Jeune (arbre)Adulte","variete":"''Aurea''"},"id":"eacf30aeee0a3a2c7eb227fa0705a57d5227087f","geo":{"type":"Point","coordinates":[2.382453811857999,48.900642662700946]},"meta":{"arrondissement":"PARIS 19E ARRDT","adresse":"TALUS N°24-04"}},{"taille":{"h":5,"p":30},"nom":"Robinier","info":{"genre":"Robinia","espece":"pseudoacacia","stade_developpement":"Jeune (arbre)"},"id":"ad083a2c427c031b3d5ddef558ae2cd692ca3922","geo":{"type":"Point","coordinates":[2.415030972823888,48.84401625030692]},"meta":{"arrondissement":"PARIS 12E ARRDT","adresse":"AVENUE COURTELINE"}},{"taille":{"h":10,"p":100},"nom":"Robinier","info":{"genre":"Robinia","espece":"pseudoacacia","stade_developpement":"Jeune (arbre)Adulte","variete":"''Bessoniana''"},"id":"540808ee3627d0ad39e894e1e34124e1cf25c18f","geo":{"type":"Point","coordinates":[2.413816785741494,48.859850612081075]},"meta":{"arrondissement":"PARIS 20E ARRDT","adresse":"TALUS N°30-03"}},{"taille":{"h":10,"p":100},"nom":"Robinier","info":{"genre":"Robinia","espece":"pseudoacacia","stade_developpement":"Adulte"},"id":"244c1aebd64fcc55cdae2e10922742054c1414bf","geo":{"type":"Point","coordinates":[2.406015147698591,48.88016341208137]},"meta":{"arrondissement":"PARIS 19E ARRDT","adresse":"TALUS N°28-01"}},{"taille":{"h":10,"p":90},"nom":"Robinier","info":{"genre":"Robinia","espece":"pseudoacacia"},"id":"b469c7c38b81941a02e81dd328a512c1d5f91f62","geo":{"type":"Point","coordinates":[2.407705925989311,48.833712245228654]},"meta":{"arrondissement":"PARIS 12E ARRDT","adresse":"TALUS N°33-03"}},{"taille":{"h":16,"p":140},"nom":"Robinier","info":{"genre":"Robinia","espece":"pseudoacacia","stade_developpement":"Adulte"},"id":"ad19da9eee85f0d77a8263eb82d14df25a4856a2","geo":{"type":"Point","coordinates":[2.448469264133465,48.83373287978664]},"meta":{"arrondissement":"BOIS DE VINCENNES","adresse":"INSEP / AVENUE DU TREMBLAY"}},{"taille":{"h":0,"p":25},"nom":"Robinier","info":{"genre":"Robinia","espece":"pseudoacacia"},"id":"adc86a3db15e704a9ce5d92b44f33e0a3db7bd9f","geo":{"type":"Point","coordinates":[2.339977847700525,48.88605907148529]},"meta":{"arrondissement":"PARIS 18E ARRDT","adresse":"JARDIN DU 28 RUE DE GABRIELLE"}},{"taille":{"h":14,"p":45},"nom":"Robinier","info":{"genre":"Robinia","espece":"pseudoacacia","stade_developpement":"Jeune (arbre)Adulte"},"id":"923b297b7a52b35500c080b54d7c4e3c308682f9","geo":{"type":"Point","coordinates":[2.443406459881527,48.839837661095935]},"meta":{"arrondissement":"BOIS DE VINCENNES","adresse":"PARC FLORAL DE PARIS / ROUTE DE LA PYRAMIDE"}},{"taille":{"h":10,"p":65},"nom":"Robinier","info":{"genre":"Robinia","espece":"pseudoacacia","stade_developpement":"Adulte"},"id":"033292ad1810e22a7cdcfb1308cef360339fa3e6","geo":{"type":"Point","coordinates":[2.415333964897222,48.843916140246684]},"meta":{"arrondissement":"PARIS 12E ARRDT","adresse":"AVENUE COURTELINE"}},{"taille":{"h":15,"p":100},"nom":"Robinier","info":{"genre":"Robinia","espece":"pseudoacacia","stade_developpement":"Jeune (arbre)Adulte","variete":"''Unifolia''"},"id":"ea1522a77bc4bdb48ff32fc4519038189f4e2144","geo":{"type":"Point","coordinates":[2.342036538729103,48.885686505986214]},"meta":{"arrondissement":"PARIS 18E ARRDT","adresse":"RUE CHAPPE"}},{"taille":{"h":0,"p":110},"nom":"Robinier","info":{"genre":"Robinia","espece":"pseudoacacia"},"id":"50467849384b30a9da7ad1e14ff880ed3c9f3d47","geo":{"type":"Point","coordinates":[2.356588987298557,48.8325916127073]},"meta":{"arrondissement":"PARIS 13E ARRDT","adresse":"BOULEVARD DE L HOPITAL"}},{"taille":{"h":10,"p":65},"nom":"Robinier","info":{"genre":"Robinia","espece":"pseudoacacia","stade_developpement":"Jeune (arbre)Adulte"},"id":"00b55a102787ff1198c3ec0c8446e231461fe82b","geo":{"type":"Point","coordinates":[2.361076998278842,48.90059751294974]},"meta":{"arrondissement":"PARIS 18E ARRDT","adresse":"TALUS N°23-11"}},{"taille":{"h":2,"p":20},"nom":"Robinier","info":{"genre":"Robinia","espece":"pseudoacacia","stade_developpement":"Jeune (arbre)"},"id":"d00037a0ec8216dff8f41afd089e2ab3a352df31","geo":{"type":"Point","coordinates":[2.274249133770196,48.87299979047012]},"meta":{"arrondissement":"PARIS 16E ARRDT","adresse":"TALUS N°15-10"}},{"taille":{"h":5,"p":20},"nom":"Robinier","info":{"genre":"Robinia","espece":"pseudoacacia","variete":"''Bessoniana''"},"id":"c43c033cb09f3d8d0dced34f6477b60dfc2cb743","geo":{"type":"Point","coordinates":[2.409490566220057,48.875680328064355]},"meta":{"arrondissement":"PARIS 20E ARRDT","adresse":"TALUS N°28-03"}},{"taille":{"h":25,"p":135},"nom":"Robinier","info":{"genre":"Robinia","espece":"pseudoacacia","stade_developpement":"Adulte","variete":"''Bessoniana''"},"id":"67e39c3f241998463c75e5cca8d6094a0fbb9dc6","geo":{"type":"Point","coordinates":[2.371924151243979,48.879544849390314]},"meta":{"arrondissement":"PARIS 19E ARRDT","adresse":"RUE DE MEAUX"}},{"taille":{"h":0,"p":0},"nom":"Robinier","info":{"genre":"Robinia","espece":"pseudoacacia","variete":"''Frisia''"},"id":"7a9c91fa0cd6268732dadf4805367de898f8dda9","geo":{"type":"Point","coordinates":[2.276728016794796,48.84159177276863]},"meta":{"arrondissement":"PARIS 15E ARRDT","adresse":"PARC ANDRE CITROEN"}},{"taille":{"h":17,"p":165},"nom":"Robinier","info":{"genre":"Robinia","espece":"pseudoacacia"},"id":"f77869c0e9facd7b35c9dec336734092d0af4c88","geo":{"type":"Point","coordinates":[2.379454532698299,48.87742930466054]},"meta":{"arrondissement":"PARIS 19E ARRDT","adresse":"PARC DES BUTTES CHAUMONT"}},{"taille":{"h":8,"p":65},"nom":"Robinier","info":{"genre":"Robinia","espece":"pseudoacacia"},"id":"12fe438eece7349fc374612fb01f75a94e71555e","geo":{"type":"Point","coordinates":[2.388467328703216,48.8803508056732]},"meta":{"arrondissement":"PARIS 19E ARRDT","adresse":"PARC DES BUTTES CHAUMONT"}},{"taille":{"h":10,"p":110},"nom":"Robinier","info":{"genre":"Robinia","espece":"pseudoacacia"},"id":"73ebad4ffab3e23094436c3a7cda160ea1e54cd7","geo":{"type":"Point","coordinates":[2.380313377903808,48.87736908258763]},"meta":{"arrondissement":"PARIS 19E ARRDT","adresse":"PARC DES BUTTES CHAUMONT"}},{"taille":{"h":15,"p":200},"nom":"Robinier","info":{"genre":"Robinia","espece":"pseudoacacia","stade_developpement":"Mature"},"id":"597e39e73a57fe8f0ef378f1996f70113ced1777","geo":{"type":"Point","coordinates":[2.267772211297017,48.84901330079253]},"meta":{"arrondissement":"PARIS 16E ARRDT","adresse":"ECOLE MATERNELLE / 38 RUE DES PERCHAMPS"}},{"taille":{"h":12,"p":55},"nom":"Robinier","info":{"genre":"Robinia","espece":"pseudoacacia","stade_developpement":"Jeune (arbre)Adulte","variete":"''Pyramidalis''"},"id":"33e549ac7d12b959db0c98e0515b68774ad09667","geo":{"type":"Point","coordinates":[2.3610849877646283,48.82970450494582]},"meta":{"arrondissement":"PARIS 13E ARRDT","adresse":"ECOLE MATERNELLE / 8 RUE RICAUT"}},{"taille":{"h":5,"p":50},"nom":"Robinier","info":{"genre":"Robinia","espece":"pseudoacacia"},"id":"daa37a4a181a172573c47540f8d28b95c3b1c9ca","geo":{"type":"Point","coordinates":[2.3621096446664,48.833787719386166]},"meta":{"arrondissement":"PARIS 13E ARRDT","adresse":"SQUARE GUSTAVE MESUREUR / 105 RUE JEANNE D ARC"}},{"taille":{"h":10,"p":85},"nom":"Robinier","info":{"genre":"Robinia","espece":"pseudoacacia","stade_developpement":"Adulte","variete":"''Unifolia''"},"id":"5ac905ad34436d5044ca425bb24d7afacb01c6c0","geo":{"type":"Point","coordinates":[2.412401755387994,48.844248044000025]},"meta":{"arrondissement":"PARIS 12E ARRDT","adresse":"AVENUE COURTELINE"}},{"taille":{"h":5,"p":20},"nom":"Robinier","info":{"genre":"Robinia","espece":"pseudoacacia","variete":"''Bessoniana''"},"id":"6667e3b729a9d2a3d35d09e405e412985b773c03","geo":{"type":"Point","coordinates":[2.409189537062765,48.8761754439735]},"meta":{"arrondissement":"PARIS 20E ARRDT","adresse":"TALUS N°28-03"}},{"taille":{"h":5,"p":30},"nom":"Robinier","info":{"genre":"Robinia","espece":"pseudoacacia","stade_developpement":"Jeune (arbre)","variete":"''Bessoniana''"},"id":"5eefb3b0cb576cf74cb954e80604ed27dae1a535","geo":{"type":"Point","coordinates":[2.404550126545915,48.83306581531158]},"meta":{"arrondissement":"PARIS 12E ARRDT","adresse":"AVENUE CHARLES DE FOUCAULD"}},{"taille":{"h":8,"p":80},"nom":"Robinier","info":{"genre":"Robinia","espece":"pseudoacacia","stade_developpement":"Jeune (arbre)Adulte"},"id":"28f984f5ec6b89850ad183f5f8a0f72af01e6d96","geo":{"type":"Point","coordinates":[2.286801070615429,48.88550311288818]},"meta":{"arrondissement":"PARIS 17E ARRDT","adresse":"TALUS N°17-04"}},{"taille":{"h":9,"p":108},"nom":"Robinier","info":{"genre":"Robinia","espece":"pseudoacacia","stade_developpement":"Adulte"},"id":"ad50af682473e9ea713d818518a3cda743b7d34f","geo":{"type":"Point","coordinates":[2.279171147037509,48.876201804837116]},"meta":{"arrondissement":"PARIS 16E ARRDT","adresse":"TALUS N°16-03"}},{"taille":{"h":5,"p":25},"nom":"Robinier","info":{"genre":"Robinia","espece":"pseudoacacia","stade_developpement":"Jeune (arbre)"},"id":"d3786b467efcf3743bf0925c1e740a2ec5891566","geo":{"type":"Point","coordinates":[2.401426573174692,48.83167151355827]},"meta":{"arrondissement":"PARIS 12E ARRDT","adresse":"BOULODROME LEO LAGRANGE / 11 ROUTE DES FORTIFICATIONS"}},{"taille":{"h":15,"p":110},"nom":"Robinier","info":{"genre":"Robinia","espece":"pseudoacacia","stade_developpement":"Adulte"},"id":"ff29e8f31f86cc7c8557d50509d10e5e2207cc3a","geo":{"type":"Point","coordinates":[2.37092764649014,48.882170255589685]},"meta":{"arrondissement":"PARIS 19E ARRDT","adresse":"AVENUE SECRETAN"}},{"taille":{"h":12,"p":140},"nom":"Robinier","info":{"genre":"Robinia","espece":"pseudoacacia","stade_developpement":"Adulte","variete":"''Unifolia''"},"id":"98ad0bc34c4471d82023e527e05fb94db1051932","geo":{"type":"Point","coordinates":[2.416199426604858,48.8478391945911]},"meta":{"arrondissement":"PARIS 20E ARRDT","adresse":"RUE DU COMMANDANT L HERMINIER"}},{"taille":{"h":15,"p":163},"nom":"Robinier","info":{"genre":"Robinia","espece":"pseudoacacia","stade_developpement":"Adulte"},"id":"846f3bb1d390da518221bb3ba2896b97751bf660","geo":{"type":"Point","coordinates":[2.280843045948768,48.87677823920251]},"meta":{"arrondissement":"PARIS 16E ARRDT","adresse":"SQUARE ALEXANDRE ET RENE PARODI / 1 PLACE DE LA PORTE MAILLOT"}},{"taille":{"h":10,"p":120},"nom":"Robinier","info":{"genre":"Robinia","espece":"pseudoacacia"},"id":"4df2e20cbe63936b26eeff11d4f45e130f02e01e","geo":{"type":"Point","coordinates":[2.407002293687631,48.83341687891092]},"meta":{"arrondissement":"PARIS 12E ARRDT","adresse":"TALUS N°33-03"}},{"taille":{"h":5,"p":81},"nom":"Robinier","info":{"genre":"Robinia","espece":"pseudoacacia","stade_developpement":"Jeune (arbre)Adulte"},"id":"6d03ffbf801100be0a02db361dcbb0f6e5612291","geo":{"type":"Point","coordinates":[2.406892395868153,48.88039083040154]},"meta":{"arrondissement":"PARIS 19E ARRDT","adresse":"TALUS N°27-02"}},{"taille":{"h":10,"p":125},"nom":"Robinier","info":{"genre":"Robinia","espece":"pseudoacacia"},"id":"ce5bb85ab8cfddb9f967285748f637f460a471b5","geo":{"type":"Point","coordinates":[2.406737205210913,48.83329075944786]},"meta":{"arrondissement":"PARIS 12E ARRDT","adresse":"TALUS N°33-03"}},{"taille":{"h":6,"p":48},"nom":"Robinier","info":{"genre":"Robinia","espece":"pseudoacacia","stade_developpement":"Jeune (arbre)Adulte"},"id":"1a58ee54909317dfedf11c404253a8f54419c0f5","geo":{"type":"Point","coordinates":[2.361304383733063,48.90061142408207]},"meta":{"arrondissement":"PARIS 18E ARRDT","adresse":"TALUS N°23-11"}},{"taille":{"h":10,"p":100},"nom":"Robinier","info":{"genre":"Robinia","espece":"pseudoacacia","stade_developpement":"Adulte","variete":"''Unifolia''"},"id":"9d6e6f284b7b21a5ac619076c1dfb4ffe45dce74","geo":{"type":"Point","coordinates":[2.335577902809322,48.89992794671206]},"meta":{"arrondissement":"PARIS 18E ARRDT","adresse":"AVENUE DE LA PORTE DE MONTMARTRE"}},{"taille":{"h":15,"p":115},"nom":"Robinier","info":{"genre":"Robinia","espece":"pseudoacacia","stade_developpement":"Adulte"},"id":"ea427f00b919e181ed0e1cb556230e65ac6d87a3","geo":{"type":"Point","coordinates":[2.395668242258114,48.86692408119434]},"meta":{"arrondissement":"PARIS 20E ARRDT","adresse":"RUE VILLIERS DE L ISLE ADAM"}},{"taille":{"h":0,"p":102},"nom":"Robinier","info":{"genre":"Robinia","espece":"pseudoacacia"},"id":"382dce1090c9effaeb804542db63c2fc80633cce","geo":{"type":"Point","coordinates":[2.272844527233747,48.82947319564352]},"meta":{"arrondissement":"PARIS 15E ARRDT","adresse":"PARC OMNISPORT SUZANNE LENGLEN / 7 BOULEVARD DES FRERES VOISIN"}},{"taille":{"h":12,"p":95},"nom":"Robinier","info":{"genre":"Robinia","espece":"pseudoacacia","stade_developpement":"Adulte"},"id":"d0c15818fdcc2188c8f2785432f59cdda0c73af0","geo":{"type":"Point","coordinates":[2.413018749878326,48.84115009002282]},"meta":{"arrondissement":"PARIS 12E ARRDT","adresse":"COULEE VERTE RENE DUMONT - PROMENADE DE L AVENUE EMILE LAURENT / 2 AVENUE EMILE LAURENT"}},{"taille":{"h":10,"p":85},"nom":"Robinier","info":{"genre":"Robinia","espece":"pseudoacacia"},"id":"d8238e1947675ee509ed251227eba0e496185513","geo":{"type":"Point","coordinates":[2.27461340023255,48.87355578833946]},"meta":{"arrondissement":"PARIS 16E ARRDT","adresse":"TALUS N°15-12"}},{"taille":{"h":14,"p":152},"nom":"Robinier","info":{"genre":"Robinia","espece":"pseudoacacia","stade_developpement":"Adulte"},"id":"43466865dab728bf9ac9a5e37967ff690f5c8119","geo":{"type":"Point","coordinates":[2.279329147441373,48.87641736620167]},"meta":{"arrondissement":"PARIS 16E ARRDT","adresse":"TALUS N°16-03"}},{"taille":{"h":0,"p":0},"nom":"Robinier","info":{"genre":"Robinia","espece":"pseudoacacia"},"id":"2ccc9d2f728add4aea692498d28a1ab9476414dc","geo":{"type":"Point","coordinates":[2.340013471327712,48.82134254623978]},"meta":{"arrondissement":"PARIS 14E ARRDT","adresse":"PARC MONTSOURIS / 28 BOULEVARD JOURDAN"}},{"taille":{"h":0,"p":0},"nom":"Robinier","info":{"genre":"Robinia","espece":"pseudoacacia"},"id":"44cdc6e148274a96d9b7a98d381c2dd7b40109c8","geo":{"type":"Point","coordinates":[2.453977572621713,48.820213498894006]},"meta":{"arrondissement":"BOIS DE VINCENNES","adresse":"ARBORETUM DE L ECOLE DU BREUIL - ROUTE DE LA FERME / ROUTE DE LA PYRAMIDE"}},{"taille":{"h":0,"p":102},"nom":"Robinier","info":{"genre":"Robinia","espece":"pseudoacacia"},"id":"374c44e632b91fe4a8b0e27734a317500dfccb10","geo":{"type":"Point","coordinates":[2.272937290621075,48.8294051638355]},"meta":{"arrondissement":"PARIS 15E ARRDT","adresse":"PARC OMNISPORT SUZANNE LENGLEN / 7 BOULEVARD DES FRERES VOISIN"}},{"taille":{"h":7,"p":75},"nom":"Robinier","info":{"genre":"Robinia","espece":"pseudoacacia","stade_developpement":"Jeune (arbre)","variete":"''Bessoniana''"},"id":"5c04cbe0a2c6b13e583c11effc55f9cbb9963614","geo":{"type":"Point","coordinates":[2.344594264632101,48.89941764954155]},"meta":{"arrondissement":"PARIS 18E ARRDT","adresse":"RUE FRANCIS DE CROISSET"}},{"taille":{"h":10,"p":110},"nom":"Robinier","info":{"genre":"Robinia","espece":"pseudoacacia","stade_developpement":"Adulte","variete":"''Unifolia''"},"id":"6e7f101ee2fd1daffa7f568fcce0fbc829cb8757","geo":{"type":"Point","coordinates":[2.382032754425021,48.83943598812397]},"meta":{"arrondissement":"PARIS 12E ARRDT","adresse":"RUE CORBINEAU"}},{"taille":{"h":15,"p":125},"nom":"Robinier","info":{"genre":"Robinia","espece":"pseudoacacia","stade_developpement":"Adulte"},"id":"9e2e09e0f75f6369bd8af5791971c2229f91258c","geo":{"type":"Point","coordinates":[2.372593692104936,48.88158493744555]},"meta":{"arrondissement":"PARIS 19E ARRDT","adresse":"AVENUE SECRETAN"}},{"taille":{"h":8,"p":60},"nom":"Robinier","info":{"genre":"Robinia","espece":"pseudoacacia","stade_developpement":"Adulte"},"id":"40ec1003add277cd2e0fddb88258ea46194b01c6","geo":{"type":"Point","coordinates":[2.369927206156689,48.8816109001594]},"meta":{"arrondissement":"PARIS 10E ARRDT","adresse":"QUAI DE JEMMAPES"}},{"taille":{"h":12,"p":170},"nom":"Robinier","info":{"genre":"Robinia","espece":"pseudoacacia","stade_developpement":"Adulte"},"id":"cf1ee6c834be6d11f30a57609ae67ebbb9e626a1","geo":{"type":"Point","coordinates":[2.372690824675236,48.900348516804954]},"meta":{"arrondissement":"PARIS 19E ARRDT","adresse":"TALUS N°24-01"}},{"taille":{"h":5,"p":35},"nom":"Robinier","info":{"genre":"Robinia","espece":"pseudoacacia","stade_developpement":"Jeune (arbre)","variete":"''Bessoniana''"},"id":"ef58094152e4ea2b4c6048ca982832419437e977","geo":{"type":"Point","coordinates":[2.364683810267544,48.848530432428596]},"meta":{"arrondissement":"PARIS 4E ARRDT","adresse":"BOULEVARD MORLAND"}},{"taille":{"h":15,"p":85},"nom":"Robinier","info":{"genre":"Robinia","espece":"pseudoacacia","stade_developpement":"Jeune (arbre)Adulte"},"id":"2d2da9686bb6a13915035ff0150fc89db5d33bc8","geo":{"type":"Point","coordinates":[2.35974354225374,48.836957822065855]},"meta":{"arrondissement":"PARIS 13E ARRDT","adresse":"BOULEVARD DE L HOPITAL"}},{"taille":{"h":7,"p":90},"nom":"Robinier","info":{"genre":"Robinia","espece":"pseudoacacia","stade_developpement":"Adulte","variete":"''Umbraculifera''"},"id":"258b4ba78c7f1e44aa0a1924b7ac833709a67750","geo":{"type":"Point","coordinates":[2.34451460773773,48.881963688859386]},"meta":{"arrondissement":"PARIS 9E ARRDT","adresse":"SQUARE D''ANVERS / 13 PLACE D ANVERS"}},{"taille":{"h":3,"p":15},"nom":"Robinier","info":{"genre":"Robinia","espece":"pseudoacacia","stade_developpement":"Jeune (arbre)"},"id":"d642c4825f7eda7281b5b4f49e90d30960eee8f8","geo":{"type":"Point","coordinates":[2.387778465320454,48.88076596729792]},"meta":{"arrondissement":"PARIS 19E ARRDT","adresse":"PARC DES BUTTES CHAUMONT"}},{"taille":{"h":1,"p":120},"nom":"Robinier","info":{"genre":"Robinia","espece":"pseudoacacia","stade_developpement":"Jeune (arbre)Adulte","variete":"''Unifolia''"},"id":"e84840f23f1b40c91c86fcb07bb470885e97703b","geo":{"type":"Point","coordinates":[2.3425120464084292,48.88490229540844]},"meta":{"arrondissement":"PARIS 18E ARRDT","adresse":"RUE FOYATIER"}},{"taille":{"h":5,"p":25},"nom":"Robinier","info":{"genre":"Robinia","espece":"pseudoacacia","stade_developpement":"Jeune (arbre)"},"id":"6cbb436993f25225dfbb6c8587f2f0e0bc6bd790","geo":{"type":"Point","coordinates":[2.395867129745578,48.873728958413714]},"meta":{"arrondissement":"PARIS 20E ARRDT","adresse":"RUE PIXERECOURT"}},{"taille":{"h":15,"p":140},"nom":"Robinier","info":{"genre":"Robinia","espece":"pseudoacacia","stade_developpement":"Adulte"},"id":"85a522f545cbcf012a3fb9f8e354e4b3fc99d116","geo":{"type":"Point","coordinates":[2.395457403701866,48.890770986543494]},"meta":{"arrondissement":"PARIS 19E ARRDT","adresse":"TALUS N°26-03"}},{"taille":{"h":15,"p":120},"nom":"Robinier","info":{"genre":"Robinia","espece":"pseudoacacia","stade_developpement":"Adulte"},"id":"d32737d38802953b9011087d086b26bd566417eb","geo":{"type":"Point","coordinates":[2.36138299086044,48.83960563822004]},"meta":{"arrondissement":"PARIS 13E ARRDT","adresse":"BOULEVARD DE L HOPITAL"}},{"taille":{"h":10,"p":70},"nom":"Robinier","info":{"genre":"Robinia","espece":"pseudoacacia"},"id":"f20d40d0afa6939e94a48bde91012c9e303b9d34","geo":{"type":"Point","coordinates":[2.254609269194868,48.84834704234992]},"meta":{"arrondissement":"PARIS 16E ARRDT","adresse":"TALUS N°12-01"}},{"taille":{"h":10,"p":115},"nom":"Robinier","info":{"genre":"Robinia","espece":"pseudoacacia","stade_developpement":"Adulte","variete":"''Unifolia''"},"id":"ef6e36a0671a15f9a2c33b44a589581861f7ee59","geo":{"type":"Point","coordinates":[2.381827124508799,48.838964235288024]},"meta":{"arrondissement":"PARIS 12E ARRDT","adresse":"RUE CORBINEAU"}},{"taille":{"h":18,"p":120},"nom":"Robinier","info":{"genre":"Robinia","espece":"pseudoacacia","stade_developpement":"Adulte"},"id":"2d7d144d4629e7b88045434c70d47eb5d92a1542","geo":{"type":"Point","coordinates":[2.43115718090891,48.83404351526037]},"meta":{"arrondissement":"BOIS DE VINCENNES","adresse":"UCPA / ROUTE DU POLYGONE"}},{"taille":{"h":15,"p":85},"nom":"Robinier","info":{"genre":"Robinia","espece":"pseudoacacia","stade_developpement":"Adulte"},"id":"5101ca872e9033f185223dfaaae65108997f588e","geo":{"type":"Point","coordinates":[2.401860740771688,48.88240587440632]},"meta":{"arrondissement":"PARIS 19E ARRDT","adresse":"RUE SIGMUND FREUD"}},{"taille":{"h":15,"p":120},"nom":"Robinier","info":{"genre":"Robinia","espece":"pseudoacacia","stade_developpement":"Mature","variete":"''Unifolia''"},"id":"4384f85798da4bf86e3453075e0015f29fece99e","geo":{"type":"Point","coordinates":[2.364342039478519,48.84302508090112]},"meta":{"arrondissement":"PARIS 13E ARRDT","adresse":"BOULEVARD DE L HOPITAL"}},{"taille":{"h":15,"p":90},"nom":"Robinier","info":{"genre":"Robinia","espece":"pseudoacacia","stade_developpement":"Adulte"},"id":"f0c3454d4f69d4ebd23aa5f2300b62c216e1aeba","geo":{"type":"Point","coordinates":[2.447873281967473,48.833477652391686]},"meta":{"arrondissement":"BOIS DE VINCENNES","adresse":"INSEP / AVENUE DU TREMBLAY"}},{"taille":{"h":7,"p":50},"nom":"Robinier","info":{"genre":"Robinia","espece":"pseudoacacia","stade_developpement":"Jeune (arbre)"},"id":"331accd29bd78d488eef50bf88b9a7c34e6ff0a4","geo":{"type":"Point","coordinates":[2.414582334046616,48.849572429401945]},"meta":{"arrondissement":"PARIS 20E ARRDT","adresse":"JARDINS D IMMEUBLES PORTE DE VINCENNES NORD / 10 RUE CRISTINO GARCIA"}},{"taille":{"h":15,"p":105},"nom":"Robinier","info":{"genre":"Robinia","espece":"x margaretta","stade_developpement":"Adulte","variete":"''Pink Cascade'' CASQUE ROUGE"},"id":"efc1b3ff8daec90a184c698613826e6bc727ea61","geo":{"type":"Point","coordinates":[2.291180576201977,48.8731319976167]},"meta":{"arrondissement":"PARIS 16E ARRDT","adresse":"JARDIN DE L AVENUE FOCH / 10 AVENUE FOCH"}},{"taille":{"h":10,"p":140},"nom":"Robinier","info":{"genre":"Robinia","espece":"pseudoacacia","stade_developpement":"Mature","variete":"''Bessoniana''"},"id":"40a19b2e5a18f28eab72a52daa10b9aad69f512e","geo":{"type":"Point","coordinates":[2.349300903030448,48.89945248686815]},"meta":{"arrondissement":"PARIS 18E ARRDT","adresse":"RUE JEAN COCTEAU"}},{"taille":{"h":9,"p":57},"nom":"Robinier","info":{"genre":"Robinia","espece":"pseudoacacia","stade_developpement":"Jeune (arbre)Adulte"},"id":"4b6758aab67502f1cb06fa5e2531dc7e781de688","geo":{"type":"Point","coordinates":[2.358667097220044,48.88738076116535]},"meta":{"arrondissement":"PARIS 18E ARRDT","adresse":"JARDIN PARTAGE DU BOIS DORMOY / 2 CITE DE LA CHAPELLE"}},{"taille":{"h":4,"p":30},"nom":"Robinier","info":{"genre":"Robinia","espece":"pseudoacacia","stade_developpement":"Jeune (arbre)"},"id":"101661e5ad4301981c5169a0cf43694d4f7852b9","geo":{"type":"Point","coordinates":[2.308546972015205,48.89274852636224]},"meta":{"arrondissement":"PARIS 17E ARRDT","adresse":"RUE DU BASTION"}},{"taille":{"h":5,"p":20},"nom":"Robinier","info":{"genre":"Robinia","espece":"pseudoacacia","variete":"''Bessoniana''"},"id":"9411e71e5077ec2b345148bcd1f34a2fc317ff3d","geo":{"type":"Point","coordinates":[2.347034970051136,48.89946508336966]},"meta":{"arrondissement":"PARIS 18E ARRDT","adresse":"RUE FRANCIS DE CROISSET"}},{"taille":{"h":4,"p":30},"nom":"Robinier","info":{"genre":"Robinia","espece":"pseudoacacia","stade_developpement":"Jeune (arbre)"},"id":"ff948ec50241fd1a2ec720f194082419e5231f5d","geo":{"type":"Point","coordinates":[2.309528236293594,48.894020375436774]},"meta":{"arrondissement":"PARIS 17E ARRDT","adresse":"RUE DU BASTION"}},{"taille":{"h":0,"p":68},"nom":"Robinier","info":{"genre":"Robinia","espece":"pseudoacacia"},"id":"cce11be6c4ded6df52c9d06d09765f9d884d8a40","geo":{"type":"Point","coordinates":[2.339953222368945,48.886030849712014]},"meta":{"arrondissement":"PARIS 18E ARRDT","adresse":"JARDIN DU 28 RUE DE GABRIELLE"}},{"taille":{"h":8,"p":55},"nom":"Robinier","info":{"genre":"Robinia","espece":"pseudoacacia","stade_developpement":"Jeune (arbre)Adulte","variete":"''Unifolia''"},"id":"0e635e919bdaa975bd570368f0c15f49fd9472cc","geo":{"type":"Point","coordinates":[2.314154702100573,48.84871178356103]},"meta":{"arrondissement":"PARIS 7E ARRDT","adresse":"RUE MASSERAN"}},{"taille":{"h":6,"p":60},"nom":"Robinier","info":{"genre":"Robinia","espece":"pseudoacacia","stade_developpement":"Jeune (arbre)Adulte"},"id":"9bf0caf4a6672f51a6535a3b9fed0254c7629fb1","geo":{"type":"Point","coordinates":[2.279340373557822,48.87648894947813]},"meta":{"arrondissement":"PARIS 16E ARRDT","adresse":"TALUS N°16-03"}},{"taille":{"h":5,"p":20},"nom":"Robinier","info":{"genre":"Robinia","espece":"pseudoacacia","variete":"''Bessoniana''"},"id":"e8ef574df3a277558de37226fc6ca8589c2b9e42","geo":{"type":"Point","coordinates":[2.347150055872552,48.89946830080044]},"meta":{"arrondissement":"PARIS 18E ARRDT","adresse":"RUE FRANCIS DE CROISSET"}},{"taille":{"h":9,"p":147},"nom":"Robinier","info":{"genre":"Robinia","espece":"pseudoacacia","stade_developpement":"Adulte","variete":"''Bessoniana''"},"id":"82bc33e66721504729048685a3bfe710a62231b3","geo":{"type":"Point","coordinates":[2.346307891056981,48.90991719800777]},"meta":{"arrondissement":"SEINE-SAINT-DENIS","adresse":"CIMETIERE DE SAINT-OUEN NOUV / AVENUE DES ACACIAS / DIV 36"}},{"taille":{"h":17,"p":142},"nom":"Robinier","info":{"genre":"Robinia","espece":"pseudoacacia","stade_developpement":"Adulte"},"id":"863ff6f5ccf039ac543cf643a8763a3a9835aea5","geo":{"type":"Point","coordinates":[2.341315417162252,48.888321347592466]},"meta":{"arrondissement":"PARIS 18E ARRDT","adresse":"JARDIN NATUREL ET SAUVAGE SAINT-VINCENT"}},{"taille":{"h":5,"p":20},"nom":"Robinier","info":{"genre":"Robinia","espece":"pseudoacacia","variete":"''Bessoniana''"},"id":"10352ad446ce1d9f59117560afce375a9759bbaf","geo":{"type":"Point","coordinates":[2.4027825286360223,48.88193906747603]},"meta":{"arrondissement":"PARIS 19E ARRDT","adresse":"RUE ALEXANDER FLEMING"}},{"taille":{"h":12,"p":130},"nom":"Robinier","info":{"genre":"Robinia","espece":"pseudoacacia","stade_developpement":"Jeune (arbre)Adulte","variete":"''Frisia''"},"id":"aae90e0aa1dd2d66f62d3cc9df934d9e6c090073","geo":{"type":"Point","coordinates":[2.335809013108082,48.8969464316889]},"meta":{"arrondissement":"PARIS 18E ARRDT","adresse":"SQUARE MARIA VERONE"}},{"taille":{"h":17,"p":180},"nom":"Robinier","info":{"genre":"Robinia","espece":"pseudoacacia"},"id":"06b7815d797bcfd8852fda2e06c42588cefa99bb","geo":{"type":"Point","coordinates":[2.379587533871587,48.878448459751155]},"meta":{"arrondissement":"PARIS 19E ARRDT","adresse":"PARC DES BUTTES CHAUMONT"}},{"taille":{"h":6,"p":37},"nom":"Robinier","info":{"genre":"Robinia","espece":"pseudoacacia","stade_developpement":"Jeune (arbre)Adulte"},"id":"c84a09836548570ee03491ccec48b67bb74a8299","geo":{"type":"Point","coordinates":[2.360821209745437,48.90060828887151]},"meta":{"arrondissement":"PARIS 18E ARRDT","adresse":"TALUS N°23-11"}},{"taille":{"h":5,"p":20},"nom":"Robinier","info":{"genre":"Robinia","espece":"x margaretta","variete":"''Pink Cascade'' CASQUE ROUGE"},"id":"732949e7185a8e241840573dc91bb02d5ca13a96","geo":{"type":"Point","coordinates":[2.342429105642243,48.885575248309905]},"meta":{"arrondissement":"PARIS 18E ARRDT","adresse":"RUE FOYATIER"}},{"taille":{"h":10,"p":120},"nom":"Robinier","info":{"genre":"Robinia","espece":"pseudoacacia"},"id":"d3e0d766a8920f676ea69fd4fb5897302bf4d939","geo":{"type":"Point","coordinates":[2.272832512084877,48.87039208982831]},"meta":{"arrondissement":"PARIS 16E ARRDT","adresse":"TALUS N°15-07"}},{"taille":{"h":0,"p":60},"nom":"Robinier","info":{"genre":"Robinia","espece":"pseudoacacia"},"id":"4baf13c129a145eb7da4af6a74d0e97a62af716d","geo":{"type":"Point","coordinates":[2.339850917298396,48.88609754646043]},"meta":{"arrondissement":"PARIS 18E ARRDT","adresse":"JARDIN DU 28 RUE DE GABRIELLE"}},{"taille":{"h":6,"p":35},"nom":"Robinier","info":{"genre":"Robinia","espece":"pseudoacacia","stade_developpement":"Jeune (arbre)","variete":"''Bessoniana''"},"id":"778b7bc4c85688d13b552b1c7c1bf5c4e1b75be4","geo":{"type":"Point","coordinates":[2.396099622816764,48.872916675308446]},"meta":{"arrondissement":"PARIS 20E ARRDT","adresse":"RUE PIXERECOURT"}},{"taille":{"h":10,"p":85},"nom":"Robinier","info":{"genre":"Robinia","espece":"pseudoacacia","stade_developpement":"Adulte","variete":"''Unifolia''"},"id":"d9c3341b24699ab1839a3b091b97eda00196217d","geo":{"type":"Point","coordinates":[2.360661578300637,48.83863625391988]},"meta":{"arrondissement":"PARIS 13E ARRDT","adresse":"BOULEVARD DE L HOPITAL"}},{"taille":{"h":13,"p":190},"nom":"Robinier","info":{"genre":"Robinia","espece":"pseudoacacia","stade_developpement":"Adulte"},"id":"8354e20eb2d98994679603705772eb3eb882a52d","geo":{"type":"Point","coordinates":[2.371438769513335,48.88796990701709]},"meta":{"arrondissement":"PARIS 19E ARRDT","adresse":"TANGER (28)"}},{"taille":{"h":10,"p":95},"nom":"Robinier","info":{"genre":"Robinia","espece":"pseudoacacia","stade_developpement":"Adulte"},"id":"81ecd0dd433857aba392de6ab8eaf0f1da444573","geo":{"type":"Point","coordinates":[2.37294383408596,48.88143307653476]},"meta":{"arrondissement":"PARIS 19E ARRDT","adresse":"AVENUE SECRETAN"}},{"taille":{"h":12,"p":60},"nom":"Robinier","info":{"genre":"Robinia","espece":"pseudoacacia","stade_developpement":"Jeune (arbre)"},"id":"a2c97a6d5cacddf68e3a11ba85234b613c494ad4","geo":{"type":"Point","coordinates":[2.360316373748704,48.83773242593686]},"meta":{"arrondissement":"PARIS 13E ARRDT","adresse":"BOULEVARD DE L HOPITAL"}},{"taille":{"h":15,"p":175},"nom":"Robinier","info":{"genre":"Robinia","espece":"pseudoacacia","stade_developpement":"Adulte"},"id":"c636f7c0009bc1d3d8fa2e5dfe765a5235156d9d","geo":{"type":"Point","coordinates":[2.444868919619188,48.834519866048346]},"meta":{"arrondissement":"BOIS DE VINCENNES","adresse":"PARC FLORAL DE PARIS / ROUTE DE LA PYRAMIDE"}},{"taille":{"h":5,"p":20},"nom":"Robinier","info":{"genre":"Robinia","espece":"pseudoacacia","variete":"''Bessoniana''"},"id":"7624f6e225372c9133ff20520860133a737be6dc","geo":{"type":"Point","coordinates":[2.365023391561359,48.847795212263385]},"meta":{"arrondissement":"PARIS 4E ARRDT","adresse":"BOULEVARD MORLAND"}},{"taille":{"h":14,"p":166},"nom":"Robinier","info":{"genre":"Robinia","espece":"pseudoacacia","stade_developpement":"Adulte"},"id":"57199548e2947e90b70870078570b90756645b12","geo":{"type":"Point","coordinates":[2.2687436617158,48.86522001725461]},"meta":{"arrondissement":"PARIS 16E ARRDT","adresse":"STADE DE LA PORTE DE LA MUETTE / 60 BOULEVARD LANNES"}},{"taille":{"h":19,"p":127},"nom":"Robinier","info":{"genre":"Robinia","espece":"pseudoacacia","stade_developpement":"Adulte"},"id":"e35449b184b36560debb18967c3df5ac12a4d0d0","geo":{"type":"Point","coordinates":[2.369627832678002,48.875377827500735]},"meta":{"arrondissement":"PARIS 10E ARRDT","adresse":"SQUARE JULIETTE DODU"}},{"taille":{"h":12,"p":90},"nom":"Robinier","info":{"genre":"Robinia","espece":"pseudoacacia","stade_developpement":"Adulte","variete":"''Unifolia''"},"id":"f2f3ea1055be502a66cee878a9cb3c92b062b496","geo":{"type":"Point","coordinates":[2.357272044129807,48.83362594488501]},"meta":{"arrondissement":"PARIS 13E ARRDT","adresse":"BOULEVARD DE L HOPITAL"}},{"taille":{"h":8,"p":35},"nom":"Robinier","info":{"genre":"Robinia","espece":"pseudoacacia","stade_developpement":"Jeune (arbre)"},"id":"6c42dd2dedb416d0437397a741e2e1b1d0fcd417","geo":{"type":"Point","coordinates":[2.374853289814717,48.880455346932855]},"meta":{"arrondissement":"PARIS 19E ARRDT","adresse":"AVENUE SECRETAN"}},{"taille":{"h":17,"p":80},"nom":"Robinier","info":{"genre":"Robinia","espece":"pseudoacacia","stade_developpement":"Jeune (arbre)Adulte","variete":"''Unifolia''"},"id":"1f5603879d87c705ec85201f5f111655c0dcf25f","geo":{"type":"Point","coordinates":[2.341962862478197,48.88524912630041]},"meta":{"arrondissement":"PARIS 18E ARRDT","adresse":"RUE CHAPPE"}},{"taille":{"h":6,"p":49},"nom":"Robinier","info":{"genre":"Robinia","espece":"pseudoacacia","stade_developpement":"Jeune (arbre)Adulte"},"id":"cc8b5683bff6348ac379901556a79997f6fa48d3","geo":{"type":"Point","coordinates":[2.360312507031468,48.90061902668345]},"meta":{"arrondissement":"PARIS 18E ARRDT","adresse":"TALUS N°23-11"}},{"taille":{"h":5,"p":20},"nom":"Robinier","info":{"genre":"Robinia","espece":"pseudoacacia","stade_developpement":"Jeune (arbre)","variete":"''Unifolia''"},"id":"3867b01bdb227bffa651908fca759e0f6c40ab3e","geo":{"type":"Point","coordinates":[2.3038327412138,48.83073242854953]},"meta":{"arrondissement":"PARIS 15E ARRDT","adresse":"RUE DU LIEUVIN"}},{"taille":{"h":15,"p":85},"nom":"Robinier","info":{"genre":"Robinia","espece":"pseudoacacia","stade_developpement":"Adulte","variete":"''Unifolia''"},"id":"1a49a0454a38a714fa692339eac724f77c30d599","geo":{"type":"Point","coordinates":[2.395491714833895,48.86677199286679]},"meta":{"arrondissement":"PARIS 20E ARRDT","adresse":"RUE VILLIERS DE L ISLE ADAM"}},{"taille":{"h":9,"p":120},"nom":"Robinier","info":{"genre":"Robinia","espece":"pseudoacacia","stade_developpement":"Adulte"},"id":"c29de6fb0e83daae415ccd21467f24074aec243c","geo":{"type":"Point","coordinates":[2.315147200680234,48.84818231293596]},"meta":{"arrondissement":"PARIS 7E ARRDT","adresse":"RUE DUROC"}},{"taille":{"h":4,"p":159},"nom":"Robinier","info":{"genre":"Robinia","espece":"pseudoacacia"},"id":"002aaa715b5f6d798d807a7d8d79bc3986aa180c","geo":{"type":"Point","coordinates":[2.398077582932351,48.88920232752248]},"meta":{"arrondissement":"PARIS 19E ARRDT","adresse":"JARDIN D IMMEUBLES GRENADE / 18 RUE DE LA MARSEILLAISE"}},{"taille":{"h":10,"p":100},"nom":"Robinier","info":{"genre":"Robinia","espece":"pseudoacacia","stade_developpement":"Adulte"},"id":"871116b8e221818d0f147b1729d3663d5c40bf63","geo":{"type":"Point","coordinates":[2.412166748147358,48.844264921570336]},"meta":{"arrondissement":"PARIS 12E ARRDT","adresse":"AVENUE COURTELINE"}},{"taille":{"h":0,"p":0},"nom":"Robinier","info":{"genre":"Robinia","espece":"pseudoacacia"},"id":"a6a920173b89a5aff1c4fcce4a35eb0ac7395709","geo":{"type":"Point","coordinates":[2.406573788671503,48.83832583339576]},"meta":{"arrondissement":"PARIS 12E ARRDT","adresse":"JARDIN PARTAGE BEL-AIR"}},{"taille":{"h":6,"p":45},"nom":"Robinier","info":{"genre":"Robinia","espece":"pseudoacacia","stade_developpement":"Jeune (arbre)"},"id":"2a932aec6269052de4ad71296ac0d758d4d94853","geo":{"type":"Point","coordinates":[2.375439503597806,48.88019763691835]},"meta":{"arrondissement":"PARIS 19E ARRDT","adresse":"AVENUE SECRETAN"}},{"taille":{"h":8,"p":105},"nom":"Robinier","info":{"genre":"Robinia","espece":"pseudoacacia","stade_developpement":"Adulte","variete":"''Unifolia''"},"id":"effd867523f514359b62fdf8d9316dfa675b7465","geo":{"type":"Point","coordinates":[2.3991197523020382,48.87534366837225]},"meta":{"arrondissement":"PARIS 20E ARRDT","adresse":"RUE DU TELEGRAPHE"}},{"taille":{"h":18,"p":185},"nom":"Robinier","info":{"genre":"Robinia","espece":"pseudoacacia","stade_developpement":"Adulte"},"id":"0be659086e60bac9b411f4a06f0a016b7533faa8","geo":{"type":"Point","coordinates":[2.320412741994365,48.833263904970444]},"meta":{"arrondissement":"PARIS 14E ARRDT","adresse":"GARENNE-STE LEONIE (3) CRECHE"}},{"taille":{"h":4,"p":34},"nom":"Robinier","info":{"genre":"Robinia","espece":"pseudoacacia","stade_developpement":"Jeune (arbre)","variete":"''Unifolia''"},"id":"aa1398b4703c974fe5f4e8988779f81758c23115","geo":{"type":"Point","coordinates":[2.296361854764862,48.85614976835552]},"meta":{"arrondissement":"PARIS 7E ARRDT","adresse":"JARDIN DU CHAMP DE MARS ET PELOUSES DE L ECOLE MILITAIRE"}},{"taille":{"h":16,"p":77},"nom":"Robinier","info":{"genre":"Robinia","espece":"pseudoacacia","variete":"''Pyramidalis''"},"id":"db5bf63a9ff1bc9c36050acb29f91c26940876a2","geo":{"type":"Point","coordinates":[2.352593883578241,48.844527058370474]},"meta":{"arrondissement":"PARIS 5E ARRDT","adresse":"SQUARE DES ARENES DE LUTECE / 2 PLACE EMILE MALE"}},{"taille":{"h":5,"p":35},"nom":"Robinier","info":{"genre":"Robinia","espece":"pseudoacacia"},"id":"b011fc3dd8b4037181619820af8559e85ad5e6e3","geo":{"type":"Point","coordinates":[2.412180956383357,48.835333777065856]},"meta":{"arrondissement":"PARIS 12E ARRDT","adresse":"TALUS N°33-00"}},{"taille":{"h":10,"p":95},"nom":"Robinier","info":{"genre":"Robinia","espece":"pseudoacacia","stade_developpement":"Adulte","variete":"''Bessoniana''"},"id":"09077f61b14fd4b9dd15f4b0074ae0915d58e72d","geo":{"type":"Point","coordinates":[2.4122872967496,48.84401606849601]},"meta":{"arrondissement":"PARIS 12E ARRDT","adresse":"AVENUE COURTELINE"}},{"taille":{"h":11,"p":80},"nom":"Robinier","info":{"genre":"Robinia","espece":"pseudoacacia","stade_developpement":"Adulte"},"id":"6bde8831a1573ef2010ba2d889994801c385e85a","geo":{"type":"Point","coordinates":[2.339245100672517,48.89703938122431]},"meta":{"arrondissement":"PARIS 18E ARRDT","adresse":"PROMENADE DE LA PETITE CEINTURE DU 18 / 100 RUE BELIARD"}},{"taille":{"h":10,"p":80},"nom":"Robinier","info":{"genre":"Robinia","espece":"pseudoacacia","stade_developpement":"Adulte"},"id":"98de83ecc9d83a32c1268c7be49a949dc9c11b51","geo":{"type":"Point","coordinates":[2.361196163096319,48.90060540606403]},"meta":{"arrondissement":"PARIS 18E ARRDT","adresse":"TALUS N°23-11"}},{"taille":{"h":5,"p":25},"nom":"Robinier","info":{"genre":"Robinia","espece":"pseudoacacia"},"id":"7447b84ab0bbad6968df5c393e0e69c684313136","geo":{"type":"Point","coordinates":[2.378295096835931,48.89281539879796]},"meta":{"arrondissement":"PARIS 19E ARRDT","adresse":"RUE DE L OURCQ"}},{"taille":{"h":8,"p":84},"nom":"Robinier","info":{"genre":"Robinia","espece":"pseudoacacia","stade_developpement":"Jeune (arbre)Adulte","variete":"''Bessoniana''"},"id":"ee0a36c3c65c89601dbddc1cc0c36a31646d7f79","geo":{"type":"Point","coordinates":[2.334641304994482,48.90052572132811]},"meta":{"arrondissement":"PARIS 18E ARRDT","adresse":"RUE LOUIS PASTEUR VALLERY RADOT"}},{"taille":{"h":6,"p":100},"nom":"Robinier","info":{"genre":"Robinia","espece":"pseudoacacia","stade_developpement":"Adulte"},"id":"fcb089d552fc19e53f171c357d9f4db57eb7d65d","geo":{"type":"Point","coordinates":[2.394592002225962,48.86538959396184]},"meta":{"arrondissement":"PARIS 20E ARRDT","adresse":"SQUARE DU DOCTEUR JACQUES JOSEPH GRANCHER / 23 RUE SORBIER"}},{"taille":{"h":14,"p":75},"nom":"Robinier","info":{"genre":"Robinia","espece":"pseudoacacia","stade_developpement":"Jeune (arbre)Adulte","variete":"''Unifolia''"},"id":"13e53a98fa5c2582fdcc9eb285072960a094b0f0","geo":{"type":"Point","coordinates":[2.342060888074879,48.885514310461204]},"meta":{"arrondissement":"PARIS 18E ARRDT","adresse":"RUE CHAPPE"}},{"taille":{"h":20,"p":115},"nom":"Robinier","info":{"genre":"Robinia","espece":"pseudoacacia","stade_developpement":"Adulte"},"id":"675595e1ec7ee92fb97394461a9fc3507fc87c81","geo":{"type":"Point","coordinates":[2.389412703945478,48.873639038781924]},"meta":{"arrondissement":"PARIS 20E ARRDT","adresse":"RUE DES PYRENEES"}},{"taille":{"h":10,"p":85},"nom":"Robinier","info":{"genre":"Robinia","espece":"pseudoacacia","stade_developpement":"Adulte","variete":"''Bessoniana''"},"id":"0a954756b93fe73be70ac517086cf43c132bdac9","geo":{"type":"Point","coordinates":[2.412028388486503,48.843992069558624]},"meta":{"arrondissement":"PARIS 12E ARRDT","adresse":"AVENUE COURTELINE"}},{"taille":{"h":0,"p":0},"nom":"Robinier","info":{"genre":"Robinia","espece":"pseudoacacia"},"id":"fff630498e086d768a278f7bc98d82f9d58535ec","geo":{"type":"Point","coordinates":[2.442959186311417,48.83915163604537]},"meta":{"arrondissement":"BOIS DE VINCENNES","adresse":"PARC FLORAL DE PARIS / ROUTE DE LA PYRAMIDE"}},{"taille":{"h":7,"p":52},"nom":"Robinier","info":{"genre":"Robinia","espece":"pseudoacacia","stade_developpement":"Jeune (arbre)Adulte"},"id":"9a45c70016f6272f977600399b5781c389d772f6","geo":{"type":"Point","coordinates":[2.403937858170641,48.88118946297829]},"meta":{"arrondissement":"PARIS 19E ARRDT","adresse":"TALUS N°27-02"}},{"taille":{"h":18,"p":75},"nom":"Robinier","info":{"genre":"Robinia","espece":"pseudoacacia","stade_developpement":"Adulte"},"id":"56ea6e0f5c48017f1559ca3a84eccfbdfb836644","geo":{"type":"Point","coordinates":[2.391468561269627,48.87123265353779]},"meta":{"arrondissement":"PARIS 20E ARRDT","adresse":"JARDIN DES PETITES RIGOLES / 1 RUE FERNAND RAYNAUD"}},{"taille":{"h":5,"p":70},"nom":"Robinier","info":{"genre":"Robinia","espece":"x margaretta","stade_developpement":"Jeune (arbre)Adulte","variete":"''Pink Cascade'' CASQUE ROUGE"},"id":"0b84d4c3fcfbb48ef3ad169cea8027a9edaa9456","geo":{"type":"Point","coordinates":[2.384070763059019,48.84441330538133]},"meta":{"arrondissement":"PARIS 12E ARRDT","adresse":"RUE DE CHARENTON"}},{"taille":{"h":12,"p":100},"nom":"Robinier","info":{"genre":"Robinia","espece":"pseudoacacia","stade_developpement":"Adulte","variete":"''Unifolia''"},"id":"6c9d22f65c2a2278daadd849ed944e10dbe2d75a","geo":{"type":"Point","coordinates":[2.356720134816043,48.833447286024395]},"meta":{"arrondissement":"PARIS 13E ARRDT","adresse":"BOULEVARD DE L HOPITAL"}},{"taille":{"h":12,"p":215},"nom":"Robinier","info":{"genre":"Robinia","espece":"pseudoacacia","stade_developpement":"Adulte"},"id":"50c3beb9682adb3fb887362b6d688414c1801efe","geo":{"type":"Point","coordinates":[2.328413009333165,48.81971937168154]},"meta":{"arrondissement":"PARIS 14E ARRDT","adresse":"CENTRE SPORTIF ELISABETH / 11 AVENUE PAUL APPELL"}},{"taille":{"h":5,"p":120},"nom":"Robinier","info":{"genre":"Robinia","espece":"pseudoacacia"},"id":"c95c32df87a54f8f79ad25724f17eb6c76fc3632","geo":{"type":"Point","coordinates":[2.4067244920619473,48.83327903162305]},"meta":{"arrondissement":"PARIS 12E ARRDT","adresse":"TALUS N°33-03"}},{"taille":{"h":5,"p":65},"nom":"Robinier","info":{"genre":"Robinia","espece":"n. sp.","stade_developpement":"Adulte"},"id":"561152cc18f33c55e4582224edc27355729a9c7d","geo":{"type":"Point","coordinates":[2.414873463051991,48.844030274424554]},"meta":{"arrondissement":"PARIS 12E ARRDT","adresse":"AVENUE COURTELINE"}},{"taille":{"h":12,"p":130},"nom":"Robinier","info":{"genre":"Robinia","espece":"pseudoacacia","stade_developpement":"Adulte"},"id":"a66376ec8bab1aa6ac65ec879fed8f5e963c38b8","geo":{"type":"Point","coordinates":[2.299345920585684,48.826301536916866]},"meta":{"arrondissement":"PARIS 15E ARRDT","adresse":"CENTRE SPORTIF CHARLES RIGOULOT / 18 AVENUE DE LA PORTE BRANCION"}},{"taille":{"h":10,"p":95},"nom":"Robinier","info":{"genre":"Robinia","espece":"pseudoacacia","stade_developpement":"Adulte","variete":"''Unifolia''"},"id":"130b2184c579c658b60a9051c34dfd1f4e11f034","geo":{"type":"Point","coordinates":[2.412035269022113,48.844038015499194]},"meta":{"arrondissement":"PARIS 12E ARRDT","adresse":"AVENUE COURTELINE"}},{"taille":{"h":12,"p":70},"nom":"Robinier","info":{"genre":"Robinia","espece":"pseudoacacia"},"id":"a59e95c6052697787ed251875e30edd8fb5527c8","geo":{"type":"Point","coordinates":[2.387192550731344,48.88144793385109]},"meta":{"arrondissement":"PARIS 19E ARRDT","adresse":"PARC DES BUTTES CHAUMONT"}},{"taille":{"h":7,"p":70},"nom":"Robinier","info":{"genre":"Robinia","espece":"pseudoacacia","stade_developpement":"Jeune (arbre)Adulte"},"id":"85740ceda420401ef362b86b9cca55c92ff9c235","geo":{"type":"Point","coordinates":[2.290712526044469,48.8869985744706]},"meta":{"arrondissement":"PARIS 17E ARRDT","adresse":"TALUS N°17-07"}},{"taille":{"h":10,"p":225},"nom":"Robinier","info":{"genre":"Robinia","espece":"pseudoacacia","stade_developpement":"Mature"},"id":"954516ab6996f1e27d5cc74f18c7f0a6590975a2","geo":{"type":"Point","coordinates":[2.318526802852733,48.84329517998461]},"meta":{"arrondissement":"PARIS 15E ARRDT","adresse":"MUSEE ANTOINE BOURDELLE / 16 RUE ANTOINE BOURDELLE"}},{"taille":{"h":4,"p":30},"nom":"Robinier","info":{"genre":"Robinia","espece":"pseudoacacia","stade_developpement":"Jeune (arbre)"},"id":"45ddd05b4f22fc9769e54f2e24349ebfb6fed119","geo":{"type":"Point","coordinates":[2.310610819275152,48.894286040731686]},"meta":{"arrondissement":"PARIS 17E ARRDT","adresse":"RUE DU BASTION"}},{"taille":{"h":5,"p":20},"nom":"Robinier","info":{"genre":"Robinia","espece":"pseudoacacia","variete":"''Bessoniana''"},"id":"bba856f351f94f02cd166a2dbc7f599b65c9a6ad","geo":{"type":"Point","coordinates":[2.350290965831026,48.817849682838045]},"meta":{"arrondissement":"PARIS 13E ARRDT","adresse":"TALUS N°03-03"}},{"taille":{"h":15,"p":90},"nom":"Robinier","info":{"genre":"Robinia","espece":"pseudoacacia","stade_developpement":"Jeune (arbre)Adulte"},"id":"84922b0a2e44726a6ef3a9403c9db1d5cbb6e711","geo":{"type":"Point","coordinates":[2.35596187924488,48.82527984166317]},"meta":{"arrondissement":"PARIS 13E ARRDT","adresse":"TERRAIN D EDUCATION PHYSIQUE MARIE ET JEAN DOMINIQUE FERRANDI / 12 RUE DU DOCTEUR LAURENT"}},{"taille":{"h":10,"p":100},"nom":"Robinier","info":{"genre":"Robinia","espece":"pseudoacacia","stade_developpement":"Adulte"},"id":"d5d910037a1c5f6028c67fef784723d3999bab69","geo":{"type":"Point","coordinates":[2.278791755791965,48.87583328041373]},"meta":{"arrondissement":"PARIS 16E ARRDT","adresse":"TALUS N°16-03"}},{"taille":{"h":0,"p":0},"nom":"Robinier","info":{"genre":"Robinia","espece":"pseudoacacia"},"id":"55f0aeb405485d60ff7bc4dec0f31cd222422aeb","geo":{"type":"Point","coordinates":[2.406174605720407,48.83793237842082]},"meta":{"arrondissement":"PARIS 12E ARRDT","adresse":"JARDIN PARTAGE BEL-AIR"}},{"taille":{"h":12,"p":70},"nom":"Robinier","info":{"genre":"Robinia","espece":"pseudoacacia","stade_developpement":"Jeune (arbre)Adulte","variete":"''Unifolia''"},"id":"00ce04f009c799072d653e639f573e312872ef8e","geo":{"type":"Point","coordinates":[2.361094713007564,48.83933580053258]},"meta":{"arrondissement":"PARIS 13E ARRDT","adresse":"BOULEVARD DE L HOPITAL"}},{"taille":{"h":5,"p":20},"nom":"Robinier","info":{"genre":"Robinia","espece":"pseudoacacia","variete":"''Bessoniana''"},"id":"acb54ad2138a89b65dc6e0df752ceb4fa6c826e2","geo":{"type":"Point","coordinates":[2.349302596678293,48.8993857398064]},"meta":{"arrondissement":"PARIS 18E ARRDT","adresse":"RUE JEAN COCTEAU"}},{"taille":{"h":13,"p":110},"nom":"Robinier","info":{"genre":"Robinia","espece":"pseudoacacia","stade_developpement":"Adulte","variete":"''Sandraudiga''"},"id":"011ec2f404cfc54590e9643cf3984ab2001e7f04","geo":{"type":"Point","coordinates":[2.314929718465976,48.8907829070289]},"meta":{"arrondissement":"PARIS 17E ARRDT","adresse":"PARC CLICHY-BATIGNOLLES-MARTIN LUTHER KING"}},{"taille":{"h":12,"p":165},"nom":"Robinier","info":{"genre":"Robinia","espece":"pseudoacacia","stade_developpement":"Adulte"},"id":"8cabcc794e5945ee7f2992f76c3ceed6fdad470c","geo":{"type":"Point","coordinates":[2.408829628454287,48.836892979627414]},"meta":{"arrondissement":"PARIS 12E ARRDT","adresse":"ECOLE MATERNELLE / 13 AVENUE ARMAND ROUSSEAU"}},{"taille":{"h":5,"p":30},"nom":"Robinier","info":{"genre":"Robinia","espece":"pseudoacacia","stade_developpement":"Jeune (arbre)"},"id":"f4ac4fa0a8a2bdbb61c3162434fde1614d5eacb3","geo":{"type":"Point","coordinates":[2.38848166615267,48.86071239028991]},"meta":{"arrondissement":"PARIS 11E ARRDT","adresse":"BOULEVARD DE MENILMONTANT"}},{"taille":{"h":5,"p":30},"nom":"Robinier","info":{"genre":"Robinia","espece":"pseudoacacia","stade_developpement":"Jeune (arbre)"},"id":"a173a1d778f62a20187fad3506dca0c323ca8804","geo":{"type":"Point","coordinates":[2.402727831823979,48.83238828453853]},"meta":{"arrondissement":"PARIS 12E ARRDT","adresse":"BOULODROME LEO LAGRANGE / 11 ROUTE DES FORTIFICATIONS"}},{"taille":{"h":6,"p":34},"nom":"Robinier","info":{"genre":"Robinia","espece":"pseudoacacia","stade_developpement":"Jeune (arbre)","variete":"''Sandraudiga''"},"id":"f57430185118d7761dddcc08e63cb1101939c2cf","geo":{"type":"Point","coordinates":[2.314822277600196,48.890768262797074]},"meta":{"arrondissement":"PARIS 17E ARRDT","adresse":"PARC CLICHY-BATIGNOLLES-MARTIN LUTHER KING"}},{"taille":{"h":16,"p":190},"nom":"Robinier","info":{"genre":"Robinia","espece":"pseudoacacia"},"id":"b128d27b020e15dcd1bf7f96e5fc933b506a7763","geo":{"type":"Point","coordinates":[2.384892205869877,48.88138942612675]},"meta":{"arrondissement":"PARIS 19E ARRDT","adresse":"PARC DES BUTTES CHAUMONT"}},{"taille":{"h":5,"p":20},"nom":"Robinier","info":{"genre":"Robinia","espece":"pseudoacacia"},"id":"6cdeff269e795f02f09828d41706bbad7e3b55ba","geo":{"type":"Point","coordinates":[2.352939819396914,48.84557117176637]},"meta":{"arrondissement":"PARIS 5E ARRDT","adresse":"SQUARE DES ARENES DE LUTECE / 2 PLACE EMILE MALE"}},{"taille":{"h":15,"p":130},"nom":"Robinier","info":{"genre":"Robinia","espece":"pseudoacacia","stade_developpement":"Jeune (arbre)Adulte","variete":"''Unifolia''"},"id":"8956efc42ca4cc163ff6364d066474533f120a7a","geo":{"type":"Point","coordinates":[2.34242235455746,48.884851782155415]},"meta":{"arrondissement":"PARIS 18E ARRDT","adresse":"RUE FOYATIER"}},{"taille":{"h":8,"p":87},"nom":"Robinier","info":{"genre":"Robinia","espece":"pseudoacacia","stade_developpement":"Adulte","variete":"''Aurea''"},"id":"fea47d52590a0fb95c6c0c7d5550a0ff58d56087","geo":{"type":"Point","coordinates":[2.382250587318846,48.900623448553375]},"meta":{"arrondissement":"PARIS 19E ARRDT","adresse":"TALUS N°24-04"}},{"taille":{"h":2,"p":20},"nom":"Robinier","info":{"genre":"Robinia","espece":"pseudoacacia","stade_developpement":"Jeune (arbre)"},"id":"1976b025f6a6436b25b2c3a8148e2601d569e613","geo":{"type":"Point","coordinates":[2.266855330781539,48.86466600195464]},"meta":{"arrondissement":"PARIS 16E ARRDT","adresse":"TALUS N°15-00"}},{"taille":{"h":10,"p":70},"nom":"Robinier","info":{"genre":"Robinia","espece":"pseudoacacia","stade_developpement":"Jeune (arbre)Adulte"},"id":"52c005874022f3b59ce448f8b2cec79a225f044b","geo":{"type":"Point","coordinates":[2.358916979173173,48.83572923064781]},"meta":{"arrondissement":"PARIS 13E ARRDT","adresse":"BOULEVARD DE L HOPITAL"}},{"taille":{"h":10,"p":60},"nom":"Robinier","info":{"genre":"Robinia","espece":"pseudoacacia","stade_developpement":"Jeune (arbre)Adulte"},"id":"68f183e61e2d803427d6801b1067ffd707dd8d9b","geo":{"type":"Point","coordinates":[2.377200242798318,48.8794137623817]},"meta":{"arrondissement":"PARIS 19E ARRDT","adresse":"AVENUE SECRETAN"}},{"taille":{"h":19,"p":110},"nom":"Robinier","info":{"genre":"Robinia","espece":"pseudoacacia","stade_developpement":"Adulte"},"id":"f1053c4c329153d38801b97c2632a111072281c8","geo":{"type":"Point","coordinates":[2.455946857505377,48.83270354202997]},"meta":{"arrondissement":"BOIS DE VINCENNES","adresse":"INSEP / AVENUE DU TREMBLAY"}},{"taille":{"h":0,"p":0},"nom":"Robinier","info":{"genre":"Robinia","espece":"pseudoacacia"},"id":"5738bfd3a2cdd62ccde5207e5e770d7f2bf249af","geo":{"type":"Point","coordinates":[2.448045130586394,48.83811267501358]},"meta":{"arrondissement":"BOIS DE VINCENNES","adresse":"PARC FLORAL DE PARIS / ROUTE DE LA PYRAMIDE"}},{"taille":{"h":15,"p":150},"nom":"Robinier","info":{"genre":"Robinia","espece":"pseudoacacia","stade_developpement":"Adulte"},"id":"fd4bc197cb05db3dc50ae097e2687a1cace4dbca","geo":{"type":"Point","coordinates":[2.340981135486753,48.82137088035508]},"meta":{"arrondissement":"PARIS 14E ARRDT","adresse":"PARC MONTSOURIS / 28 BOULEVARD JOURDAN"}},{"taille":{"h":0,"p":0},"nom":"Robinier","info":{"genre":"Robinia","espece":"pseudoacacia"},"id":"3859be791be0e26701b020f7157d9768199833f1","geo":{"type":"Point","coordinates":[2.453711255092135,48.82095173667971]},"meta":{"arrondissement":"BOIS DE VINCENNES","adresse":"ARBORETUM DE L ECOLE DU BREUIL - ROUTE DE LA FERME / ROUTE DE LA PYRAMIDE"}},{"taille":{"h":12,"p":160},"nom":"Robinier","info":{"genre":"Robinia","espece":"pseudoacacia","stade_developpement":"Adulte"},"id":"0f7cf73c9c2d6ad864f7e4dfb75d31b6d1eb5ef5","geo":{"type":"Point","coordinates":[2.448759723495555,48.83338256848179]},"meta":{"arrondissement":"BOIS DE VINCENNES","adresse":"INSEP / AVENUE DU TREMBLAY"}},{"taille":{"h":14,"p":96},"nom":"Robinier","info":{"genre":"Robinia","espece":"pseudoacacia","stade_developpement":"Adulte","variete":"''Unifolia''"},"id":"95c1b996db489d726687af64e26296afc10d0eb2","geo":{"type":"Point","coordinates":[2.345934117782991,48.86473517812154]},"meta":{"arrondissement":"PARIS 2E ARRDT","adresse":"RUE TIQUETONNE"}},{"taille":{"h":2,"p":20},"nom":"Robinier","info":{"genre":"Robinia","espece":"pseudoacacia","stade_developpement":"Jeune (arbre)"},"id":"c9c78e3dc8be1aadb21744f6cc5f6a588a20821d","geo":{"type":"Point","coordinates":[2.274341591224895,48.87307854010883]},"meta":{"arrondissement":"PARIS 16E ARRDT","adresse":"TALUS N°15-10"}},{"taille":{"h":5,"p":45},"nom":"Robinier","info":{"genre":"Robinia","espece":"pseudoacacia","stade_developpement":"Jeune (arbre)"},"id":"67fa724abb86276c6f0bd0d04e9543b8cfd49ec1","geo":{"type":"Point","coordinates":[2.376569694178543,48.879832949796686]},"meta":{"arrondissement":"PARIS 19E ARRDT","adresse":"AVENUE SECRETAN"}},{"taille":{"h":8,"p":110},"nom":"Robinier","info":{"genre":"Robinia","espece":"pseudoacacia","stade_developpement":"Adulte","variete":"''Bessoniana''"},"id":"5f43e751a5ec8c35fd5f7f9d04a1737f551d51dd","geo":{"type":"Point","coordinates":[2.346531334179843,48.910258931092905]},"meta":{"arrondissement":"SEINE-SAINT-DENIS","adresse":"CIMETIERE DE SAINT-OUEN NOUV / AVENUE DES ACACIAS / DIV 33"}},{"taille":{"h":6,"p":50},"nom":"Robinier","info":{"genre":"Robinia","espece":"pseudoacacia"},"id":"9e1ba0a225c5aeb7b12785cf1e457c0a3c082d60","geo":{"type":"Point","coordinates":[2.385106385311264,48.87959570001417]},"meta":{"arrondissement":"PARIS 19E ARRDT","adresse":"PARC DES BUTTES CHAUMONT"}},{"taille":{"h":5,"p":25},"nom":"Robinier","info":{"genre":"Robinia","espece":"pseudoacacia","stade_developpement":"Jeune (arbre)","variete":"''Bessoniana''"},"id":"52cf0ffcb154d6985169f05dd433a390d5403885","geo":{"type":"Point","coordinates":[2.389225209459981,48.85899091965099]},"meta":{"arrondissement":"PARIS 11E ARRDT","adresse":"BOULEVARD DE MENILMONTANT"}},{"taille":{"h":10,"p":70},"nom":"Robinier","info":{"genre":"Robinia","espece":"pseudoacacia","stade_developpement":"Jeune (arbre)"},"id":"8540fb839a67cf9365760261fcded6383f6d61ae","geo":{"type":"Point","coordinates":[2.400853546832465,48.83183507219368]},"meta":{"arrondissement":"PARIS 12E ARRDT","adresse":"STADE LEO LAGRANGE / 68 BOULEVARD PONIATOWSKI"}},{"taille":{"h":4,"p":25},"nom":"Robinier","info":{"genre":"Robinia","espece":"pseudoacacia","stade_developpement":"Jeune (arbre)"},"id":"454c403b68e5c0608325c43b5a163d1177a955a9","geo":{"type":"Point","coordinates":[2.312857689054237,48.889953141391814]},"meta":{"arrondissement":"PARIS 17E ARRDT","adresse":"RUE MSTISLAV ROSTROPOVITCH"}},{"taille":{"h":1,"p":0},"nom":"Robinier","info":{"genre":"Robinia","espece":"pseudoacacia","stade_developpement":"Jeune (arbre)"},"id":"4237f486353c9eaf798c883b253a99b2043a00a0","geo":{"type":"Point","coordinates":[2.360333370302196,48.90059518936869]},"meta":{"arrondissement":"PARIS 18E ARRDT","adresse":"TALUS N°23-11"}},{"taille":{"h":14,"p":175},"nom":"Robinier","info":{"genre":"Robinia","espece":"pseudoacacia","stade_developpement":"Adulte"},"id":"afe5cebed68455b551a7a8a2831bcbb93bf596e8","geo":{"type":"Point","coordinates":[2.368807177315705,48.81095682950109]},"meta":{"arrondissement":"VAL-DE-MARNE","adresse":"CIMETIERE D''IVRY / DIV 14"}},{"taille":{"h":15,"p":90},"nom":"Robinier","info":{"genre":"Robinia","espece":"pseudoacacia","stade_developpement":"Jeune (arbre)Adulte","variete":"''Unifolia''"},"id":"7e0aad5318bf801ae66915919bfe08d2e6b67127","geo":{"type":"Point","coordinates":[2.342417079837825,48.884942279648314]},"meta":{"arrondissement":"PARIS 18E ARRDT","adresse":"RUE FOYATIER"}},{"taille":{"h":15,"p":120},"nom":"Robinier","info":{"genre":"Robinia","espece":"pseudoacacia","stade_developpement":"Adulte"},"id":"4eed275796d4874662a6a2d33e97ddf440cbd2c3","geo":{"type":"Point","coordinates":[2.44833396182091,48.833919215019506]},"meta":{"arrondissement":"BOIS DE VINCENNES","adresse":"INSEP / AVENUE DU TREMBLAY"}},{"taille":{"h":17,"p":190},"nom":"Robinier","info":{"genre":"Robinia","espece":"pseudoacacia"},"id":"db4d718a5e9d195bf9a3c5b80e3de2dffaa5e02e","geo":{"type":"Point","coordinates":[2.34841266684416,48.83135948589945]},"meta":{"arrondissement":"PARIS 13E ARRDT","adresse":"SQUARE RENE LE GALL"}},{"taille":{"h":5,"p":60},"nom":"Robinier","info":{"genre":"Robinia","espece":"pseudoacacia"},"id":"a36d4fab370ec76f062ea5a701f5b38e61425b32","geo":{"type":"Point","coordinates":[2.25470472231548,48.84833984848222]},"meta":{"arrondissement":"PARIS 16E ARRDT","adresse":"TALUS N°12-01"}},{"taille":{"h":15,"p":110},"nom":"Robinier","info":{"genre":"Robinia","espece":"pseudoacacia","stade_developpement":"Adulte"},"id":"194bc22feefc13935ab184c77989bd7821fe35f8","geo":{"type":"Point","coordinates":[2.387913310572388,48.86173663464538]},"meta":{"arrondissement":"PARIS 11E ARRDT","adresse":"BOULEVARD DE MENILMONTANT"}},{"taille":{"h":5,"p":90},"nom":"Robinier","info":{"genre":"Robinia","espece":"pseudoacacia","stade_developpement":"Jeune (arbre)Adulte"},"id":"ec99e6fbdb42ecc548ca8dd09a3b2c6502f1bd46","geo":{"type":"Point","coordinates":[2.413138860821395,48.85492499384026]},"meta":{"arrondissement":"PARIS 20E ARRDT","adresse":"CENTRE SPORTIF DOCTEURS DEJERINE / 36 RUE DES DOCTEURS DEJERINE"}},{"taille":{"h":2,"p":20},"nom":"Robinier","info":{"genre":"Robinia","espece":"pseudoacacia","stade_developpement":"Jeune (arbre)"},"id":"8651bf1d357524fcafaecedf0e87880d94eb3d65","geo":{"type":"Point","coordinates":[2.275903452191424,48.87496687301756]},"meta":{"arrondissement":"PARIS 16E ARRDT","adresse":"TALUS N°15-12"}},{"taille":{"h":2,"p":20},"nom":"Robinier","info":{"genre":"Robinia","espece":"pseudoacacia","stade_developpement":"Jeune (arbre)"},"id":"d54a36cb643d3d4e0f17bb481b7933b030129e9d","geo":{"type":"Point","coordinates":[2.274279416943425,48.873000576636265]},"meta":{"arrondissement":"PARIS 16E ARRDT","adresse":"TALUS N°15-10"}},{"taille":{"h":0,"p":65},"nom":"Robinier","info":{"genre":"Robinia","espece":"pseudoacacia"},"id":"56ca41feb6f994878abea861738d365eb97fe2db","geo":{"type":"Point","coordinates":[2.340027676836293,48.88607956305714]},"meta":{"arrondissement":"PARIS 18E ARRDT","adresse":"JARDIN DU 28 RUE DE GABRIELLE"}},{"taille":{"h":7,"p":76},"nom":"Robinier","info":{"genre":"Robinia","espece":"pseudoacacia","stade_developpement":"Jeune (arbre)Adulte"},"id":"c05d6ce7c913d5c04973a625f9847f1b4fee7911","geo":{"type":"Point","coordinates":[2.406828769835744,48.88043299038215]},"meta":{"arrondissement":"PARIS 19E ARRDT","adresse":"TALUS N°27-02"}},{"taille":{"h":5,"p":20},"nom":"Robinier","info":{"genre":"Robinia","espece":"pseudoacacia","stade_developpement":"Jeune (arbre)"},"id":"6d1ad8c67191fa5a0feec0ff651c70a417eee9f8","geo":{"type":"Point","coordinates":[2.355728536086072,48.81930666683087]},"meta":{"arrondissement":"PARIS 13E ARRDT","adresse":"PARC KELLERMANN / 19 RUE DE LA POTERNE DES PEUPLIERS"}},{"taille":{"h":0,"p":92},"nom":"Robinier","info":{"genre":"Robinia","espece":"pseudoacacia"},"id":"5205ae3960ad2e429dacb13ad74ab75c2bbfe4da","geo":{"type":"Point","coordinates":[2.272821539592865,48.82950981357117]},"meta":{"arrondissement":"PARIS 15E ARRDT","adresse":"PARC OMNISPORT SUZANNE LENGLEN / 7 BOULEVARD DES FRERES VOISIN"}},{"taille":{"h":15,"p":105},"nom":"Robinier","info":{"genre":"Robinia","espece":"pseudoacacia","stade_developpement":"Adulte","variete":"''Unifolia''"},"id":"ea69002a12a1d04f1c81912a0bf45c4367d03a74","geo":{"type":"Point","coordinates":[2.358631263407863,48.83534251781374]},"meta":{"arrondissement":"PARIS 13E ARRDT","adresse":"BOULEVARD DE L HOPITAL"}},{"taille":{"h":12,"p":190},"nom":"Robinier","info":{"genre":"Robinia","espece":"pseudoacacia","stade_developpement":"Adulte"},"id":"7e6b95756646539d2da22d480db8c01e015cfb44","geo":{"type":"Point","coordinates":[2.364366429445407,48.811124663986135]},"meta":{"arrondissement":"VAL-DE-MARNE","adresse":"CIMETIERE D''IVRY / DIV 3"}},{"taille":{"h":3,"p":20},"nom":"Robinier","info":{"genre":"Robinia","espece":"x margaretta","variete":"''Pink Cascade'' CASQUE ROUGE"},"id":"25a2b1574ccb868c4bb0e5930726eb273cad5180","geo":{"type":"Point","coordinates":[2.271320271112157,48.82980537726268]},"meta":{"arrondissement":"PARIS 15E ARRDT","adresse":"PARC OMNISPORT SUZANNE LENGLEN / 7 BOULEVARD DES FRERES VOISIN"}},{"taille":{"h":9,"p":70},"nom":"Robinier","info":{"genre":"Robinia","espece":"pseudoacacia","stade_developpement":"Jeune (arbre)Adulte"},"id":"575ed78b1bc0f2fe0dc730fbeffde512182f1dca","geo":{"type":"Point","coordinates":[2.388534922205403,48.87183098723003]},"meta":{"arrondissement":"PARIS 20E ARRDT","adresse":"RUE DU TRANSVAAL"}},{"taille":{"h":15,"p":115},"nom":"Robinier","info":{"genre":"Robinia","espece":"pseudoacacia","stade_developpement":"Adulte"},"id":"c88ee53e244debdf5426fa8d33ec3aae1db85182","geo":{"type":"Point","coordinates":[2.411456244224067,48.840934957842016]},"meta":{"arrondissement":"PARIS 12E ARRDT","adresse":"COULEE VERTE RENE DUMONT - PROMENADE DE L AVENUE EMILE LAURENT / 2 AVENUE EMILE LAURENT"}},{"taille":{"h":5,"p":70},"nom":"Robinier","info":{"genre":"Robinia","espece":"pseudoacacia"},"id":"0fb353c28ddc40c44778f019ed2aaa21fc341a09","geo":{"type":"Point","coordinates":[2.258360535423995,48.83587435058475]},"meta":{"arrondissement":"PARIS 16E ARRDT","adresse":"TALUS N°10-03"}},{"taille":{"h":6,"p":25},"nom":"Robinier","info":{"genre":"Robinia","espece":"pseudoacacia","stade_developpement":"Jeune (arbre)","variete":"''Unifolia''"},"id":"eac91a219ffbcba92164d863d9080d803d289374","geo":{"type":"Point","coordinates":[2.377710314937245,48.89311035975055]},"meta":{"arrondissement":"PARIS 19E ARRDT","adresse":"RUE DE L OURCQ"}},{"taille":{"h":5,"p":20},"nom":"Robinier","info":{"genre":"Robinia","espece":"pseudoacacia","variete":"''Bessoniana''"},"id":"f35e776564a2f18d1272763a8acf2c29789ec41f","geo":{"type":"Point","coordinates":[2.34715144301114,48.81630395410592]},"meta":{"arrondissement":"PARIS 13E ARRDT","adresse":"TALUS N°03-04"}},{"taille":{"h":7,"p":112},"nom":"Robinier","info":{"genre":"Robinia","espece":"pseudoacacia","stade_developpement":"Adulte","variete":"''Bessoniana''"},"id":"7e66545fff3c5551a279b25b3cb04596f866836f","geo":{"type":"Point","coordinates":[2.3463679267359803,48.91007213464811]},"meta":{"arrondissement":"SEINE-SAINT-DENIS","adresse":"CIMETIERE DE SAINT-OUEN NOUV / AVENUE DES ACACIAS / DIV 36"}},{"taille":{"h":0,"p":90},"nom":"Robinier","info":{"genre":"Robinia","espece":"pseudoacacia"},"id":"10f8ea333b892862ac78e44cf2f5041d7bcbe57d","geo":{"type":"Point","coordinates":[2.269409363698038,48.82949388352531]},"meta":{"arrondissement":"PARIS 15E ARRDT","adresse":"PARC OMNISPORT SUZANNE LENGLEN / 7 BOULEVARD DES FRERES VOISIN"}},{"taille":{"h":2,"p":20},"nom":"Robinier","info":{"genre":"Robinia","espece":"pseudoacacia","stade_developpement":"Jeune (arbre)"},"id":"ceec1adba09840b755a53f5dc7e7af923ab3fc68","geo":{"type":"Point","coordinates":[2.274244192957311,48.872954190672694]},"meta":{"arrondissement":"PARIS 16E ARRDT","adresse":"TALUS N°15-10"}},{"taille":{"h":0,"p":0},"nom":"Robinier","info":{"genre":"Robinia","espece":"pseudoacacia"},"id":"69f83780dd994efb99b40d867c360168380fb041","geo":{"type":"Point","coordinates":[2.33766510108108,48.82414770537521]},"meta":{"arrondissement":"PARIS 14E ARRDT","adresse":"PARC MONTSOURIS / 28 BOULEVARD JOURDAN"}},{"taille":{"h":10,"p":70},"nom":"Robinier","info":{"genre":"Robinia","espece":"pseudoacacia","stade_developpement":"Jeune (arbre)","variete":"''Bessoniana''"},"id":"98d5e3fa50d195b6b78f7620e99146e840ca6850","geo":{"type":"Point","coordinates":[2.377064688673605,48.89344020064999]},"meta":{"arrondissement":"PARIS 19E ARRDT","adresse":"RUE DE L OURCQ"}},{"taille":{"h":14,"p":95},"nom":"Robinier","info":{"genre":"Robinia","espece":"pseudoacacia","stade_developpement":"Adulte"},"id":"bc8adb51124a3a4c1191f8d8cbc2beeba6ebdc29","geo":{"type":"Point","coordinates":[2.4115486552983,48.840906722924046]},"meta":{"arrondissement":"PARIS 12E ARRDT","adresse":"COULEE VERTE RENE DUMONT - PROMENADE DE L AVENUE EMILE LAURENT / 2 AVENUE EMILE LAURENT"}},{"taille":{"h":10,"p":80},"nom":"Robinier","info":{"genre":"Robinia","espece":"pseudoacacia"},"id":"34846ce1ee0fe0ca3deea6a163b0fbc561e8d688","geo":{"type":"Point","coordinates":[2.274554884400569,48.87352245473795]},"meta":{"arrondissement":"PARIS 16E ARRDT","adresse":"TALUS N°15-12"}},{"taille":{"h":18,"p":280},"nom":"Robinier","info":{"genre":"Robinia","espece":"pseudoacacia"},"id":"8d232c125cd08cdb09399c5067ecbdc859d5d32f","geo":{"type":"Point","coordinates":[2.356053929831528,48.818044321221166]},"meta":{"arrondissement":"PARIS 13E ARRDT","adresse":"PARC KELLERMANN / 19 RUE DE LA POTERNE DES PEUPLIERS"}},{"taille":{"h":12,"p":110},"nom":"Robinier","info":{"genre":"Robinia","espece":"pseudoacacia","stade_developpement":"Adulte","variete":"''Bessoniana''"},"id":"6e1fbb1e99d4c488d092ae3d3643ae9c6f5a5ca7","geo":{"type":"Point","coordinates":[2.388845973028706,48.86045368421225]},"meta":{"arrondissement":"PARIS 20E ARRDT","adresse":"BOULEVARD DE MENILMONTANT"}},{"taille":{"h":10,"p":0},"nom":"Robinier","info":{"genre":"Robinia","espece":"pseudoacacia"},"id":"2808ff48e6bb43bf16f07747c0b01d6131e18aa7","geo":{"type":"Point","coordinates":[2.415041101600282,48.86431130935547]},"meta":{"arrondissement":"PARIS 20E ARRDT","adresse":"TALUS N°29-06"}},{"taille":{"h":5,"p":30},"nom":"Robinier","info":{"genre":"Robinia","espece":"pseudoacacia","stade_developpement":"Jeune (arbre)","variete":"''Bessoniana''"},"id":"459b2a5e97099fdf97f8b2e3a77dd90d2e826ed1","geo":{"type":"Point","coordinates":[2.411758361997868,48.84282359320232]},"meta":{"arrondissement":"PARIS 12E ARRDT","adresse":"CENTRE SPORTIF CARNOT / 26 BOULEVARD CARNOT"}},{"taille":{"h":15,"p":75},"nom":"Robinier","info":{"genre":"Robinia","espece":"pseudoacacia"},"id":"4c3950b2589c95b6a9d6833d0a7c9a4cd10eb0ea","geo":{"type":"Point","coordinates":[2.270825123739092,48.869664940723176]},"meta":{"arrondissement":"PARIS 16E ARRDT","adresse":"TALUS N°15-06"}},{"taille":{"h":6,"p":50},"nom":"Robinier","info":{"genre":"Robinia","espece":"pseudoacacia","stade_developpement":"Jeune (arbre)Adulte","variete":"''Frisia''"},"id":"a125ece0f7bbc73648dfd24e1346d22b41ce6741","geo":{"type":"Point","coordinates":[2.412876859158204,48.86251119550063]},"meta":{"arrondissement":"PARIS 20E ARRDT","adresse":"JARDIN D IMMEUBLES DE LA PORTE DE BAGNOLET / 29-31 RUE HENRI DUVERNOIS"}},{"taille":{"h":15,"p":115},"nom":"Robinier","info":{"genre":"Robinia","espece":"pseudoacacia","stade_developpement":"Adulte"},"id":"9b224e27eeb31a20b75fc8ea9a6519cbb3b82758","geo":{"type":"Point","coordinates":[2.430583306560932,48.834388280227216]},"meta":{"arrondissement":"BOIS DE VINCENNES","adresse":"UCPA / ROUTE DU POLYGONE"}},{"taille":{"h":5,"p":25},"nom":"Robinier","info":{"genre":"Robinia","espece":"n. sp.","stade_developpement":"Jeune (arbre)"},"id":"9dcde15cb7dfe5e4ebd17951cdb716441aaea48c","geo":{"type":"Point","coordinates":[2.318828474879941,48.86555861513116]},"meta":{"arrondissement":"PARIS 8E ARRDT","adresse":"JARDINS DES CHAMPS ELYSEES - ABORDS DU KIOSQUE / 3 AVENUE EDWARD TUCK"}},{"taille":{"h":15,"p":110},"nom":"Robinier","info":{"genre":"Robinia","espece":"pseudoacacia","stade_developpement":"Adulte","variete":"''Unifolia''"},"id":"59c8dbb4fba49bc6e01fb812f870df1ec01242fa","geo":{"type":"Point","coordinates":[2.3577545264036193,48.834725073966645]},"meta":{"arrondissement":"PARIS 13E ARRDT","adresse":"BOULEVARD DE L HOPITAL"}},{"taille":{"h":4,"p":25},"nom":"Robinier","info":{"genre":"Robinia","espece":"n. sp."},"id":"3b226da82ee0a7f2ef2bdcfcf507c031c8659317","geo":{"type":"Point","coordinates":[2.398087233262692,48.889133173320516]},"meta":{"arrondissement":"PARIS 19E ARRDT","adresse":"JARDIN D IMMEUBLES GRENADE / 18 RUE DE LA MARSEILLAISE"}},{"taille":{"h":0,"p":0},"nom":"Robinier","info":{"genre":"Robinia","espece":"pseudoacacia"},"id":"9a6bf51bab28cb073523bc5332b39a90a2db0f8f","geo":{"type":"Point","coordinates":[2.408512372782489,48.84045684542496]},"meta":{"arrondissement":"PARIS 12E ARRDT","adresse":"COULEE VERTE RENE DUMONT - PROMENADE DE LA RUE DU SAHEL / 20-32 RUE DE MONTEMPOIVRE"}},{"taille":{"h":15,"p":110},"nom":"Robinier","info":{"genre":"Robinia","espece":"pseudoacacia","stade_developpement":"Jeune (arbre)Adulte","variete":"''Unifolia''"},"id":"0d4a8457682d35999923c07d0a59331fe93e7016","geo":{"type":"Point","coordinates":[2.342500240285747,48.88499275703317]},"meta":{"arrondissement":"PARIS 18E ARRDT","adresse":"RUE FOYATIER"}},{"taille":{"h":0,"p":101},"nom":"Robinier","info":{"genre":"Robinia","espece":"pseudoacacia"},"id":"12a9304caa2e529727137a7f5f3eac62bb9147ec","geo":{"type":"Point","coordinates":[2.272909299695478,48.829420579937825]},"meta":{"arrondissement":"PARIS 15E ARRDT","adresse":"PARC OMNISPORT SUZANNE LENGLEN / 7 BOULEVARD DES FRERES VOISIN"}},{"taille":{"h":0,"p":0},"nom":"Robinier","info":{"genre":"Robinia","espece":"pseudoacacia"},"id":"c26a59fee6c54ed194cac0e1554854d3729d3868","geo":{"type":"Point","coordinates":[2.406070024099429,48.837640726871825]},"meta":{"arrondissement":"PARIS 12E ARRDT","adresse":"JARDIN PARTAGE BEL-AIR"}},{"taille":{"h":20,"p":240},"nom":"Robinier","info":{"genre":"Robinia","espece":"pseudoacacia","stade_developpement":"Adulte"},"id":"d73f2900fe8d63dce998c95154856d0b8fcfc5d8","geo":{"type":"Point","coordinates":[2.396880328276708,48.87066348796648]},"meta":{"arrondissement":"PARIS 20E ARRDT","adresse":"SQUARE DES SAINT SIMONIENS MENILMONTANT / 2 RUE DE LA DUEE"}},{"taille":{"h":6,"p":70},"nom":"Robinier","info":{"genre":"Robinia","espece":"pseudoacacia","stade_developpement":"Adulte","variete":"''Bessoniana''"},"id":"b2831b844a766e39217a71a4a5762abe9cddbdb4","geo":{"type":"Point","coordinates":[2.4121018871134,48.85588647650519]},"meta":{"arrondissement":"PARIS 20E ARRDT","adresse":"RUE DES DOCTEURS DEJERINE"}},{"taille":{"h":10,"p":75},"nom":"Robinier","info":{"genre":"Robinia","espece":"pseudoacacia","stade_developpement":"Adulte"},"id":"660fca44590525bb6127615cdd3c422ab133e628","geo":{"type":"Point","coordinates":[2.357022061000027,48.83317165186629]},"meta":{"arrondissement":"PARIS 13E ARRDT","adresse":"BOULEVARD DE L HOPITAL"}},{"taille":{"h":15,"p":95},"nom":"Robinier","info":{"genre":"Robinia","espece":"pseudoacacia","stade_developpement":"Adulte"},"id":"6b42fd1962193a9cf9a4c63f971dfd932fd3d24f","geo":{"type":"Point","coordinates":[2.412542793520617,48.84097491494921]},"meta":{"arrondissement":"PARIS 12E ARRDT","adresse":"COULEE VERTE RENE DUMONT - PROMENADE DE L AVENUE EMILE LAURENT / 2 AVENUE EMILE LAURENT"}},{"taille":{"h":5,"p":20},"nom":"Robinier","info":{"genre":"Robinia","espece":"pseudoacacia","variete":"''Bessoniana''"},"id":"5fa3b74999b020e09f762581367872060c7dd6bd","geo":{"type":"Point","coordinates":[2.3474126098228,48.89941600654152]},"meta":{"arrondissement":"PARIS 18E ARRDT","adresse":"RUE FRANCIS DE CROISSET"}},{"taille":{"h":7,"p":60},"nom":"Robinier","info":{"genre":"Robinia","espece":"pseudoacacia","stade_developpement":"Jeune (arbre)","variete":"''Bessoniana''"},"id":"9984014ad307b3bbc6d73b6683ec45236b885b6e","geo":{"type":"Point","coordinates":[2.347550721225938,48.89941809899977]},"meta":{"arrondissement":"PARIS 18E ARRDT","adresse":"RUE FRANCIS DE CROISSET"}},{"taille":{"h":18,"p":195},"nom":"Robinier","info":{"genre":"Robinia","espece":"pseudoacacia"},"id":"7a1ace20d060b8cf5999eac4f2a94afc1bd431b5","geo":{"type":"Point","coordinates":[2.379060993084184,48.879373506228056]},"meta":{"arrondissement":"PARIS 19E ARRDT","adresse":"PARC DES BUTTES CHAUMONT"}},{"taille":{"h":18,"p":97},"nom":"Robinier","info":{"genre":"Robinia","espece":"pseudoacacia","stade_developpement":"Adulte"},"id":"e2bb6e7453746a53dc586fd650b4b00b251f3ceb","geo":{"type":"Point","coordinates":[2.340946158474964,48.88837463327919]},"meta":{"arrondissement":"PARIS 18E ARRDT","adresse":"JARDIN NATUREL ET SAUVAGE SAINT-VINCENT"}},{"taille":{"h":0,"p":70},"nom":"Robinier","info":{"genre":"Robinia","espece":"pseudoacacia"},"id":"d1b752b6f2ce53ebb17fb74fcd87e98628770de3","geo":{"type":"Point","coordinates":[2.339862347286271,48.88609522625935]},"meta":{"arrondissement":"PARIS 18E ARRDT","adresse":"JARDIN DU 28 RUE DE GABRIELLE"}},{"taille":{"h":4,"p":25},"nom":"Robinier","info":{"genre":"Robinia","espece":"pseudoacacia","stade_developpement":"Jeune (arbre)"},"id":"d22d62026f500a128bb8ed87dd0a7a67416bac62","geo":{"type":"Point","coordinates":[2.315006728025587,48.889034497136294]},"meta":{"arrondissement":"PARIS 17E ARRDT","adresse":"RUE MSTISLAV ROSTROPOVITCH"}},{"taille":{"h":0,"p":127},"nom":"Robinier","info":{"genre":"Robinia","espece":"pseudoacacia"},"id":"d2bbbc7ad324721e5110ce36b348478bfc854e97","geo":{"type":"Point","coordinates":[2.273218240070424,48.82939031388813]},"meta":{"arrondissement":"PARIS 15E ARRDT","adresse":"PARC OMNISPORT SUZANNE LENGLEN / 7 BOULEVARD DES FRERES VOISIN"}},{"taille":{"h":3,"p":25},"nom":"Robinier","info":{"genre":"Robinia","espece":"pseudoacacia","stade_developpement":"Jeune (arbre)","variete":"''Unifolia''"},"id":"e8dbcb22b7268a0a5b378e52a553a87591548dca","geo":{"type":"Point","coordinates":[2.358863697324141,48.836224262548015]},"meta":{"arrondissement":"PARIS 13E ARRDT","adresse":"BOULEVARD DE L HOPITAL"}},{"taille":{"h":5,"p":20},"nom":"Robinier","info":{"genre":"Robinia","espece":"pseudoacacia"},"id":"24a26c15caf8b0cb12dfbc3936c6f7eedc289727","geo":{"type":"Point","coordinates":[2.387813366697536,48.86193999565086]},"meta":{"arrondissement":"PARIS 11E ARRDT","adresse":"BOULEVARD DE MENILMONTANT"}},{"taille":{"h":22,"p":120},"nom":"Robinier","info":{"genre":"Robinia","espece":"pseudoacacia","stade_developpement":"Adulte"},"id":"f1cb538e2b7f4a7e5927e3e5fa5946b2db9b2e93","geo":{"type":"Point","coordinates":[2.2728019397234203,48.86842587399564]},"meta":{"arrondissement":"PARIS 16E ARRDT","adresse":"JARDIN DU GENERAL ANSELIN / 1 AVENUE DE POLOGNE"}},{"taille":{"h":5,"p":20},"nom":"Robinier","info":{"genre":"Robinia","espece":"pseudoacacia","variete":"''Unifolia''"},"id":"044a25df355a13ef104ce9e57ba3149857a4935c","geo":{"type":"Point","coordinates":[2.342371618510712,48.88528321734802]},"meta":{"arrondissement":"PARIS 18E ARRDT","adresse":"RUE FOYATIER"}},{"taille":{"h":5,"p":20},"nom":"Robinier","info":{"genre":"Robinia","espece":"pseudoacacia","variete":"''Bessoniana''"},"id":"dbbb50b4e3dfe57eeaf09af62142da4e38be396d","geo":{"type":"Point","coordinates":[2.350093428622543,48.81778448332635]},"meta":{"arrondissement":"PARIS 13E ARRDT","adresse":"TALUS N°03-03"}},{"taille":{"h":5,"p":40},"nom":"Robinier","info":{"genre":"Robinia","espece":"pseudoacacia","stade_developpement":"Jeune (arbre)","variete":"''Bessoniana''"},"id":"278981cb1185f202a0d445ac442a404cd8ed0c72","geo":{"type":"Point","coordinates":[2.403386856203252,48.88163443006985]},"meta":{"arrondissement":"PARIS 19E ARRDT","adresse":"RUE ALEXANDER FLEMING"}},{"taille":{"h":18,"p":143},"nom":"Robinier","info":{"genre":"Robinia","espece":"pseudoacacia","stade_developpement":"Adulte"},"id":"72bc152c069c6eb9faa52df481b818508895dbef","geo":{"type":"Point","coordinates":[2.341379268478342,48.88832674404528]},"meta":{"arrondissement":"PARIS 18E ARRDT","adresse":"JARDIN NATUREL ET SAUVAGE SAINT-VINCENT"}},{"taille":{"h":20,"p":140},"nom":"Robinier","info":{"genre":"Robinia","espece":"pseudoacacia","stade_developpement":"Adulte"},"id":"bb078cdc4f3239a8899c9985d1d927a15ca4ce4d","geo":{"type":"Point","coordinates":[2.371377993407116,48.88211447943963]},"meta":{"arrondissement":"PARIS 19E ARRDT","adresse":"AVENUE SECRETAN"}},{"taille":{"h":13,"p":95},"nom":"Robinier","info":{"genre":"Robinia","espece":"pseudoacacia","stade_developpement":"Jeune (arbre)Adulte"},"id":"3f6c35138d7b2bd653a89fa5bedf53e9ee73b4dd","geo":{"type":"Point","coordinates":[2.386550310369787,48.84519851283929]},"meta":{"arrondissement":"PARIS 12E ARRDT","adresse":"D''ARTAGNAN (6)"}},{"taille":{"h":14,"p":200},"nom":"Robinier","info":{"genre":"Robinia","espece":"pseudoacacia","stade_developpement":"Adulte"},"id":"adb4feaed228f71bc3dd115a1a02a31dc13e468d","geo":{"type":"Point","coordinates":[2.363718391211025,48.82768983842852]},"meta":{"arrondissement":"PARIS 13E ARRDT","adresse":"CENTRE SPORTIF CHARLES MOUREU / 17 AVENUE EDISON"}},{"taille":{"h":15,"p":160},"nom":"Robinier","info":{"genre":"Robinia","espece":"pseudoacacia","stade_developpement":"Adulte"},"id":"6361fbae551f692a7e374d82d7b20db8e8d6c0e1","geo":{"type":"Point","coordinates":[2.411559001389274,48.83475634055252]},"meta":{"arrondissement":"PARIS 12E ARRDT","adresse":"TALUS N°33-00"}},{"taille":{"h":10,"p":85},"nom":"Robinier","info":{"genre":"Robinia","espece":"pseudoacacia","stade_developpement":"Jeune (arbre)Adulte"},"id":"3d36085c9f4be8860f97dc7c3bb27a23bfb1a3e5","geo":{"type":"Point","coordinates":[2.38912491795589,48.859200404972306]},"meta":{"arrondissement":"PARIS 11E ARRDT","adresse":"BOULEVARD DE MENILMONTANT"}},{"taille":{"h":15,"p":100},"nom":"Robinier","info":{"genre":"Robinia","espece":"pseudoacacia","stade_developpement":"Adulte"},"id":"a15518b362815cf2b1f78611dcd04e6a9f446d1a","geo":{"type":"Point","coordinates":[2.413044805468671,48.854788551220366]},"meta":{"arrondissement":"PARIS 20E ARRDT","adresse":"CENTRE SPORTIF DOCTEURS DEJERINE / 36 RUE DES DOCTEURS DEJERINE"}},{"taille":{"h":5,"p":20},"nom":"Robinier","info":{"genre":"Robinia","espece":"pseudoacacia"},"id":"aa7990a0fd0d884cef01a42e4b57760942f69ed8","geo":{"type":"Point","coordinates":[2.3123997084203562,48.82389904431613]},"meta":{"arrondissement":"PARIS 14E ARRDT","adresse":"JARDIN DU GROUPE SCOLAIRE MAURICE D OCAGNE / 7 AVENUE MAURICE D OCAGNE"}},{"taille":{"h":5,"p":45},"nom":"Robinier","info":{"genre":"Robinia","espece":"pseudoacacia","stade_developpement":"Jeune (arbre)"},"id":"5f059ac80dd18b601a6d65d552cd06241826a778","geo":{"type":"Point","coordinates":[2.376360776772424,48.87992374622656]},"meta":{"arrondissement":"PARIS 19E ARRDT","adresse":"AVENUE SECRETAN"}},{"taille":{"h":5,"p":20},"nom":"Robinier","info":{"genre":"Robinia","espece":"x margaretta","variete":"''Pink Cascade'' CASQUE ROUGE"},"id":"8c52359b67df778243beef328a6a2269aada9f27","geo":{"type":"Point","coordinates":[2.358411422948135,48.887290088414574]},"meta":{"arrondissement":"PARIS 18E ARRDT","adresse":"CITE DE LA CHAPELLE"}},{"taille":{"h":5,"p":20},"nom":"Robinier","info":{"genre":"Robinia","espece":"pseudoacacia","variete":"''Bessoniana''"},"id":"212c1a31d69f230d2f4e6757cb97c4dcecff844b","geo":{"type":"Point","coordinates":[2.34832479936424,48.89949067053561]},"meta":{"arrondissement":"PARIS 18E ARRDT","adresse":"RUE JEAN COCTEAU"}},{"taille":{"h":15,"p":100},"nom":"Robinier","info":{"genre":"Robinia","espece":"pseudoacacia","stade_developpement":"Adulte"},"id":"8ad4954a93f10309673bcff98aa037be3267d90f","geo":{"type":"Point","coordinates":[2.388207788627005,48.86111775495353]},"meta":{"arrondissement":"PARIS 11E ARRDT","adresse":"BOULEVARD DE MENILMONTANT"}},{"taille":{"h":10,"p":110},"nom":"Robinier","info":{"genre":"Robinia","espece":"pseudoacacia","stade_developpement":"Adulte","variete":"''Unifolia''"},"id":"1ce5ea4fa8a652575948014ddf146d7448226b96","geo":{"type":"Point","coordinates":[2.41256182432032,48.844235573597686]},"meta":{"arrondissement":"PARIS 12E ARRDT","adresse":"AVENUE COURTELINE"}},{"taille":{"h":10,"p":120},"nom":"Robinier","info":{"genre":"Robinia","espece":"pseudoacacia","stade_developpement":"Jeune (arbre)Adulte"},"id":"38b041a335daab9462ec15e54b8c218f5ff35e50","geo":{"type":"Point","coordinates":[2.375494719492595,48.8936818003118]},"meta":{"arrondissement":"PARIS 19E ARRDT","adresse":"RUE DE L OURCQ"}},{"taille":{"h":5,"p":20},"nom":"Robinier","info":{"genre":"Robinia","espece":"x margaretta","variete":"''Pink Cascade'' CASQUE ROUGE"},"id":"26ba10e3ac009252479d8b81c8a7d9eb0be8288b","geo":{"type":"Point","coordinates":[2.342419663692023,48.88489856846163]},"meta":{"arrondissement":"PARIS 18E ARRDT","adresse":"RUE FOYATIER"}},{"taille":{"h":15,"p":140},"nom":"Robinier","info":{"genre":"Robinia","espece":"pseudoacacia","stade_developpement":"Adulte"},"id":"e0d65e5dc53031bdf925297a8bb5e989062bd2ac","geo":{"type":"Point","coordinates":[2.389298310908521,48.8588405443686]},"meta":{"arrondissement":"PARIS 11E ARRDT","adresse":"BOULEVARD DE MENILMONTANT"}},{"taille":{"h":13,"p":120},"nom":"Robinier","info":{"genre":"Robinia","espece":"pseudoacacia","stade_developpement":"Adulte"},"id":"170c99b7bcc4a8fc0917cb225c86dcfeed6036dc","geo":{"type":"Point","coordinates":[2.282646925492041,48.88092237473346]},"meta":{"arrondissement":"PARIS 17E ARRDT","adresse":"TALUS N°16-07"}},{"taille":{"h":0,"p":175},"nom":"Robinier","info":{"genre":"Robinia","espece":"pseudoacacia","stade_developpement":"Adulte"},"id":"a659da27d9c63c5b72bc066ac5e76f8bafed376f","geo":{"type":"Point","coordinates":[2.392086727898342,48.86394100714639]},"meta":{"arrondissement":"PARIS 20E ARRDT","adresse":"SQUARE SAMUEL DE CHAMPLAIN"}},{"taille":{"h":5,"p":60},"nom":"Robinier","info":{"genre":"Robinia","espece":"pseudoacacia","stade_developpement":"Jeune (arbre)"},"id":"e885069fd5c687ec5afe4f184f681c3a656e36bc","geo":{"type":"Point","coordinates":[2.413638264424698,48.85621809431722]},"meta":{"arrondissement":"PARIS 20E ARRDT","adresse":"TALUS N°30-05"}},{"taille":{"h":4,"p":30},"nom":"Robinier","info":{"genre":"Robinia","espece":"pseudoacacia","stade_developpement":"Jeune (arbre)"},"id":"38bec4fb45cd6cd6328adbc8eb6786c9606445c7","geo":{"type":"Point","coordinates":[2.308071362343663,48.89308587719518]},"meta":{"arrondissement":"PARIS 17E ARRDT","adresse":"RUE DU BASTION"}},{"taille":{"h":3,"p":15},"nom":"Robinier","info":{"genre":"Robinia","espece":"pseudoacacia","stade_developpement":"Jeune (arbre)"},"id":"cddf5d0c9c2c43673927550a2f1ac5e230aa68c5","geo":{"type":"Point","coordinates":[2.388240958392,48.880515134586034]},"meta":{"arrondissement":"PARIS 19E ARRDT","adresse":"PARC DES BUTTES CHAUMONT"}},{"taille":{"h":9,"p":144},"nom":"Robinier","info":{"genre":"Robinia","espece":"pseudoacacia","stade_developpement":"Adulte","variete":"''Bessoniana''"},"id":"7355c3f1fdcadc7665a71374f505e3a5b63823d8","geo":{"type":"Point","coordinates":[2.3460610345040243,48.909239210995956]},"meta":{"arrondissement":"SEINE-SAINT-DENIS","adresse":"CIMETIERE DE SAINT-OUEN NOUV / AVENUE DES ACACIAS / DIV 35"}},{"taille":{"h":5,"p":55},"nom":"Robinier","info":{"genre":"Robinia","espece":"pseudoacacia","stade_developpement":"Jeune (arbre)Adulte"},"id":"3ecd06057347163f8352d99225809016638239e2","geo":{"type":"Point","coordinates":[2.375964546267742,48.87996470546253]},"meta":{"arrondissement":"PARIS 19E ARRDT","adresse":"AVENUE SECRETAN"}},{"taille":{"h":11,"p":116},"nom":"Robinier","info":{"genre":"Robinia","espece":"pseudoacacia","stade_developpement":"Adulte"},"id":"c98592d17c364a2a82e31cb7954922637e693f77","geo":{"type":"Point","coordinates":[2.280357295552965,48.879213630993064]},"meta":{"arrondissement":"PARIS 17E ARRDT","adresse":"TALUS PORTE MAILLOT 53B / 1V PLACE DE VERDUN"}},{"taille":{"h":15,"p":90},"nom":"Robinier","info":{"genre":"Robinia","espece":"pseudoacacia"},"id":"10adbd380a728c4579aa0c91bf908d700b9b3bd2","geo":{"type":"Point","coordinates":[2.271547296489214,48.87033760781025]},"meta":{"arrondissement":"PARIS 16E ARRDT","adresse":"TALUS N°15-06"}},{"taille":{"h":15,"p":105},"nom":"Robinier","info":{"genre":"Robinia","espece":"pseudoacacia","stade_developpement":"Adulte"},"id":"f10c66d1c18b8d9fc02443506c530627090fc9a4","geo":{"type":"Point","coordinates":[2.399918669857076,48.86197407487232]},"meta":{"arrondissement":"PARIS 20E ARRDT","adresse":"TALUS DU PONT CHARLES RENOUVIER / 8 RUE RAMUS"}},{"taille":{"h":12,"p":105},"nom":"Robinier","info":{"genre":"Robinia","espece":"pseudoacacia","stade_developpement":"Adulte","variete":"''Sandraudiga''"},"id":"15008303db0cdaecb46bc2e2a7579cbe0664c3f0","geo":{"type":"Point","coordinates":[2.314479424213905,48.89087391394566]},"meta":{"arrondissement":"PARIS 17E ARRDT","adresse":"PARC CLICHY-BATIGNOLLES-MARTIN LUTHER KING"}},{"taille":{"h":15,"p":110},"nom":"Robinier","info":{"genre":"Robinia","espece":"pseudoacacia","stade_developpement":"Adulte","variete":"''Unifolia''"},"id":"1f4fe80a0f726b89c170314ddc7b6fe3a1ca7b98","geo":{"type":"Point","coordinates":[2.387482938457207,48.87377649969918]},"meta":{"arrondissement":"PARIS 20E ARRDT","adresse":"RUE DES PYRENEES"}},{"taille":{"h":10,"p":120},"nom":"Robinier","info":{"genre":"Robinia","espece":"pseudoacacia"},"id":"eac8313d65aa6d30875c6515e99bdf2ea81a2475","geo":{"type":"Point","coordinates":[2.274354885313086,48.87332310774568]},"meta":{"arrondissement":"PARIS 16E ARRDT","adresse":"TALUS N°15-12"}},{"taille":{"h":15,"p":145},"nom":"Robinier","info":{"genre":"Robinia","espece":"pseudoacacia","stade_developpement":"Adulte"},"id":"4bbc91ca0a346a8fbae62c433cff4b3e1ed9ea8e","geo":{"type":"Point","coordinates":[2.404209455724865,48.83325041336813]},"meta":{"arrondissement":"PARIS 12E ARRDT","adresse":"RUE JOSEPH CHAILLEY"}},{"taille":{"h":5,"p":35},"nom":"Robinier","info":{"genre":"Robinia","espece":"pseudoacacia"},"id":"2b2b0142cae701f0aca2903327f1b83ed15cf3dc","geo":{"type":"Point","coordinates":[2.412204828840372,48.83538539190568]},"meta":{"arrondissement":"PARIS 12E ARRDT","adresse":"TALUS N°33-00"}},{"taille":{"h":2,"p":20},"nom":"Robinier","info":{"genre":"Robinia","espece":"pseudoacacia","stade_developpement":"Jeune (arbre)"},"id":"163360bacd3cad6b5bb4f13b93cc67dc71741f93","geo":{"type":"Point","coordinates":[2.274240692050742,48.87318391625101]},"meta":{"arrondissement":"PARIS 16E ARRDT","adresse":"TALUS N°15-12"}},{"taille":{"h":6,"p":38},"nom":"Robinier","info":{"genre":"Robinia","espece":"pseudoacacia","stade_developpement":"Jeune (arbre)Adulte"},"id":"3010cdd0b3075f7c2ab382f9cd36797208350939","geo":{"type":"Point","coordinates":[2.361004604583906,48.90063100390503]},"meta":{"arrondissement":"PARIS 18E ARRDT","adresse":"TALUS N°23-11"}},{"taille":{"h":10,"p":120},"nom":"Robinier","info":{"genre":"Robinia","espece":"pseudoacacia"},"id":"aefae9a770805fc2033db4b6f6d44cb5a0827ef6","geo":{"type":"Point","coordinates":[2.377629645681897,48.8208085188651]},"meta":{"arrondissement":"PARIS 13E ARRDT","adresse":"TALUS N°01-00"}},{"taille":{"h":14,"p":90},"nom":"Robinier","info":{"genre":"Robinia","espece":"pseudoacacia","stade_developpement":"Adulte","variete":"''Unifolia''"},"id":"8ee6c50f55c665be585761027f0a1ed4f757aefa","geo":{"type":"Point","coordinates":[2.342008088800866,48.88560690296351]},"meta":{"arrondissement":"PARIS 18E ARRDT","adresse":"RUE CHAPPE"}},{"taille":{"h":17,"p":145},"nom":"Robinier","info":{"genre":"Robinia","espece":"pseudoacacia","stade_developpement":"Adulte"},"id":"981816c6d5584017c91c24f8790a757449c01980","geo":{"type":"Point","coordinates":[2.273033114791568,48.86866557891256]},"meta":{"arrondissement":"PARIS 16E ARRDT","adresse":"JARDIN DU GENERAL ANSELIN / 1 AVENUE DE POLOGNE"}},{"taille":{"h":12,"p":80},"nom":"Robinier","info":{"genre":"Robinia","espece":"pseudoacacia","stade_developpement":"Adulte"},"id":"d7d2f242d4ffa58a09871128bb579bba779c3455","geo":{"type":"Point","coordinates":[2.356346270135683,48.832383838339915]},"meta":{"arrondissement":"PARIS 13E ARRDT","adresse":"BOULEVARD DE L HOPITAL"}},{"taille":{"h":8,"p":50},"nom":"Robinier","info":{"genre":"Robinia","espece":"pseudoacacia","stade_developpement":"Adulte"},"id":"9b1e451d0eba302973330cef60b1cc6da8d842bf","geo":{"type":"Point","coordinates":[2.448440211074241,48.83379032292284]},"meta":{"arrondissement":"BOIS DE VINCENNES","adresse":"INSEP / AVENUE DU TREMBLAY"}},{"taille":{"h":8,"p":50},"nom":"Robinier","info":{"genre":"Robinia","espece":"pseudoacacia","stade_developpement":"Jeune (arbre)","variete":"''Bessoniana''"},"id":"a2ed694ca591f76fa14fb0c7c59bd3abde3a0fd5","geo":{"type":"Point","coordinates":[2.348799631486033,48.89944340417541]},"meta":{"arrondissement":"PARIS 18E ARRDT","adresse":"RUE JEAN COCTEAU"}},{"taille":{"h":7,"p":45},"nom":"Robinier","info":{"genre":"Robinia","espece":"pseudoacacia","stade_developpement":"Jeune (arbre)Adulte","variete":"''Unifolia''"},"id":"3f560ff8608c82d04e9513eb32a121fb3bdf21a8","geo":{"type":"Point","coordinates":[2.303779985062893,48.8306933493222]},"meta":{"arrondissement":"PARIS 15E ARRDT","adresse":"RUE DU LIEUVIN"}},{"taille":{"h":5,"p":25},"nom":"Robinier","info":{"genre":"Robinia","espece":"pseudoacacia"},"id":"81913a227775c06521e2a7c6ffd13a534e097f32","geo":{"type":"Point","coordinates":[2.387949304389696,48.88062336196698]},"meta":{"arrondissement":"PARIS 19E ARRDT","adresse":"PARC DES BUTTES CHAUMONT"}},{"taille":{"h":10,"p":90},"nom":"Robinier","info":{"genre":"Robinia","espece":"pseudoacacia","stade_developpement":"Adulte"},"id":"375e9a3904517d1d17f61472c3a4c58d030f8115","geo":{"type":"Point","coordinates":[2.374417491207231,48.88065573443641]},"meta":{"arrondissement":"PARIS 19E ARRDT","adresse":"AVENUE SECRETAN"}},{"taille":{"h":10,"p":70},"nom":"Robinier","info":{"genre":"Robinia","espece":"pseudoacacia","stade_developpement":"Jeune (arbre)","variete":"''Unifolia''"},"id":"99252079b1a1c624e6c7a68f0f237b3e6a48a4e0","geo":{"type":"Point","coordinates":[2.342107589753602,48.88563557173764]},"meta":{"arrondissement":"PARIS 18E ARRDT","adresse":"RUE CHAPPE"}},{"taille":{"h":0,"p":0},"nom":"Robinier","info":{"genre":"Robinia","espece":"viscosa"},"id":"66a2f51aee039904d98557f770bb9a249ecde3fe","geo":{"type":"Point","coordinates":[2.453735207958217,48.820889762516444]},"meta":{"arrondissement":"BOIS DE VINCENNES","adresse":"ARBORETUM DE L ECOLE DU BREUIL - ROUTE DE LA FERME / ROUTE DE LA PYRAMIDE"}},{"taille":{"h":8,"p":30},"nom":"Robinier","info":{"genre":"Robinia","espece":"pseudoacacia","stade_developpement":"Jeune (arbre)","variete":"''Unifolia''"},"id":"d727a19a898bd6bed36ee30be1e5bff1e9081ee9","geo":{"type":"Point","coordinates":[2.3424785070241763,48.8851706598381]},"meta":{"arrondissement":"PARIS 18E ARRDT","adresse":"RUE FOYATIER"}},{"taille":{"h":0,"p":120},"nom":"Robinier","info":{"genre":"Robinia","espece":"pseudoacacia"},"id":"55b4526fc8665a250b3ad0d61549e11b23e7cbd7","geo":{"type":"Point","coordinates":[2.383992709207534,48.879972702381004]},"meta":{"arrondissement":"PARIS 19E ARRDT","adresse":"PARC DES BUTTES CHAUMONT"}},{"taille":{"h":10,"p":175},"nom":"Robinier","info":{"genre":"Robinia","espece":"pseudoacacia"},