[{"taille":{"h":0,"p":0},"nom":"Cyprès Chauve","info":{"genre":"Taxodium","espece":"distichum"},"id":"02183e041e01c1f494916e0b0a1550879b38b330","geo":{"type":"Point","coordinates":[2.275161621080327,48.84115832830373]},"meta":{"arrondissement":"PARIS 15E ARRDT","adresse":"PARC ANDRE CITROEN"}},{"taille":{"h":0,"p":0},"nom":"Cyprès Chauve","info":{"genre":"Taxodium","espece":"n. sp."},"id":"bb07c27e0447c90a235cdcabde98e5a5e662279b","geo":{"type":"Point","coordinates":[2.456701543937157,48.82200060780154]},"meta":{"arrondissement":"BOIS DE VINCENNES","adresse":"ARBORETUM DE L ECOLE DU BREUIL - ROUTE DE LA FERME / ROUTE DE LA PYRAMIDE"}},{"taille":{"h":19,"p":221},"nom":"Cyprès Chauve","info":{"genre":"Taxodium","espece":"distichum","stade_developpement":"Adulte"},"id":"d639c8e35c0478b9cc189518c9195b04143128dd","geo":{"type":"Point","coordinates":[2.253433501141055,48.847675788788024]},"meta":{"arrondissement":"PARIS 16E ARRDT","adresse":"JARDIN DES SERRES D AUTEUIL / 1 AVENUE GORDON BENNETT"}},{"taille":{"h":0,"p":0},"nom":"Cyprès Chauve","info":{"genre":"Taxodium","espece":"distichum"},"id":"637d5ef8df4ec5e4e0d9896dd25b997ad5de30d3","geo":{"type":"Point","coordinates":[2.456273861278996,48.822006839173966]},"meta":{"arrondissement":"BOIS DE VINCENNES","adresse":"ARBORETUM DE L ECOLE DU BREUIL - ROUTE DE LA FERME / ROUTE DE LA PYRAMIDE"}},{"taille":{"h":0,"p":0},"nom":"Cyprès Chauve","info":{"genre":"Taxodium","espece":"distichum"},"id":"0910de9417d7b5f2ea0cb9b50fe7e6aa834e17f6","geo":{"type":"Point","coordinates":[2.445873197721588,48.83845289723111]},"meta":{"arrondissement":"BOIS DE VINCENNES","adresse":"PARC FLORAL DE PARIS / ROUTE DE LA PYRAMIDE"}},{"taille":{"h":0,"p":0},"nom":"Cyprès Chauve","info":{"genre":"Taxodium","espece":"distichum"},"id":"e05cfb311df59c359f14b024ce8692ade1602f3e","geo":{"type":"Point","coordinates":[2.275164258487614,48.841091152255196]},"meta":{"arrondissement":"PARIS 15E ARRDT","adresse":"PARC ANDRE CITROEN"}},{"taille":{"h":5,"p":20},"nom":"Cyprès Chauve","info":{"genre":"Taxodium","espece":"distichum"},"id":"2eff08fb2e52e3183e7b2fb716468663e6308715","geo":{"type":"Point","coordinates":[2.324693989121057,48.8624808219551]},"meta":{"arrondissement":"PARIS 1ER ARRDT","adresse":"PORT DES TUILERIES"}},{"taille":{"h":0,"p":0},"nom":"Cyprès Chauve","info":{"genre":"Taxodium","espece":"distichum"},"id":"df262320990131aef33a18d6841dedc00e773f34","geo":{"type":"Point","coordinates":[2.275175909358722,48.84121157671414]},"meta":{"arrondissement":"PARIS 15E ARRDT","adresse":"PARC ANDRE CITROEN"}},{"taille":{"h":32,"p":354},"nom":"Cyprès Chauve","info":{"genre":"Taxodium","espece":"distichum","stade_developpement":"Mature"},"id":"4f2ecdaa01bea6c84a08b3568148083679447e49","geo":{"type":"Point","coordinates":[2.259777049393632,48.860605073853336]},"meta":{"arrondissement":"BOIS DE BOULOGNE","adresse":"BERGE DU LAC INFERIEUR - CHEMIN DE CEINTURE DU LAC INFERIEUR"}},{"taille":{"h":24,"p":315},"nom":"Cyprès Chauve","info":{"genre":"Taxodium","espece":"distichum","stade_developpement":"Adulte"},"id":"94d0febbf1983d620dfd53a42837d2e2d787c81d","geo":{"type":"Point","coordinates":[2.459304323959846,48.82290420174622]},"meta":{"arrondissement":"BOIS DE VINCENNES","adresse":"ECOLE DU BREUIL / ROUTE DE LA FERME"}},{"taille":{"h":28,"p":311},"nom":"Cyprès Chauve","info":{"genre":"Taxodium","espece":"distichum","stade_developpement":"Mature"},"id":"6194cf1447796af420b0612a732a5bd904303173","geo":{"type":"Point","coordinates":[2.240724763839415,48.86326316101311]},"meta":{"arrondissement":"BOIS DE BOULOGNE","adresse":"GRANDE CASCADE - CARREFOUR DE LONGCHAMP"}},{"taille":{"h":0,"p":40},"nom":"Cyprès Chauve","info":{"genre":"Taxodium","espece":"distichum"},"id":"071e2f397411459548e2142f3477b6399db3f438","geo":{"type":"Point","coordinates":[2.401093315547544,48.88178025288607]},"meta":{"arrondissement":"PARIS 19E ARRDT","adresse":"PROMENADE AMALIA RODRIGUES / 9 RUE DES MARCHAIS"}},{"taille":{"h":6,"p":100},"nom":"Cyprès Chauve","info":{"genre":"Taxodium","espece":"distichum","stade_developpement":"Jeune (arbre)Adulte"},"id":"ff58fc6ba1497dcb21dd2b3ab4215d5f7f17096f","geo":{"type":"Point","coordinates":[2.323923239313219,48.82223762317499]},"meta":{"arrondissement":"PARIS 14E ARRDT","adresse":"SQUARE DU SERMENT DE KOUFRA"}},{"taille":{"h":18,"p":285},"nom":"Cyprès Chauve","info":{"genre":"Taxodium","espece":"distichum","stade_developpement":"Adulte"},"id":"69c4ac3b5673516529c04b0f4d0320c0719ce1cc","geo":{"type":"Point","coordinates":[2.411452728985843,48.832610572841126]},"meta":{"arrondissement":"BOIS DE VINCENNES","adresse":"ILE DE BERCY / LAC DAUMESNIL"}},{"taille":{"h":0,"p":0},"nom":"Cyprès Chauve","info":{"genre":"Taxodium","espece":"distichum"},"id":"da9a8c96ff9058bacfaadeb2a16f29b5a6f6e100","geo":{"type":"Point","coordinates":[2.445858263322672,48.83839926230167]},"meta":{"arrondissement":"BOIS DE VINCENNES","adresse":"PARC FLORAL DE PARIS / ROUTE DE LA PYRAMIDE"}},{"taille":{"h":6,"p":71},"nom":"Cyprès Chauve","info":{"genre":"Taxodium","espece":"distichum","stade_developpement":"Adulte"},"id":"1a908d4787ae7fe02acb70fb6ac47122304eb1b7","geo":{"type":"Point","coordinates":[2.339831030705823,48.82273446316075]},"meta":{"arrondissement":"PARIS 14E ARRDT","adresse":"PARC MONTSOURIS / 28 BOULEVARD JOURDAN"}},{"taille":{"h":0,"p":0},"nom":"Cyprès Chauve","info":{"genre":"Taxodium","espece":"distichum"},"id":"fdbf5fbcb05384e007780d564112b21955cdad54","geo":{"type":"Point","coordinates":[2.275067395863502,48.84119106104529]},"meta":{"arrondissement":"PARIS 15E ARRDT","adresse":"PARC ANDRE CITROEN"}},{"taille":{"h":15,"p":130},"nom":"Cyprès Chauve","info":{"genre":"Taxodium","espece":"distichum"},"id":"e9c69b76e4c1c343ecaec30105d1184c531cb9c6","geo":{"type":"Point","coordinates":[2.355027289730342,48.818147442117606]},"meta":{"arrondissement":"PARIS 13E ARRDT","adresse":"PARC KELLERMANN / 19 RUE DE LA POTERNE DES PEUPLIERS"}},{"taille":{"h":15,"p":130},"nom":"Cyprès Chauve","info":{"genre":"Taxodium","espece":"distichum"},"id":"23cb2b5301bb1db9f1c4226818b22045aa56d14b","geo":{"type":"Point","coordinates":[2.354978800367385,48.8180861754781]},"meta":{"arrondissement":"PARIS 13E ARRDT","adresse":"PARC KELLERMANN / 19 RUE DE LA POTERNE DES PEUPLIERS"}},{"taille":{"h":12,"p":137},"nom":"Cyprès Chauve","info":{"genre":"Taxodium","espece":"distichum","stade_developpement":"Jeune (arbre)Adulte"},"id":"7e02792d0a374f307e208d070c3dc0af224583a2","geo":{"type":"Point","coordinates":[2.295680606614179,48.85868167464225]},"meta":{"arrondissement":"PARIS 7E ARRDT","adresse":"JARDIN DU CHAMP DE MARS ET PELOUSES DE L ECOLE MILITAIRE / SETE"}},{"taille":{"h":0,"p":0},"nom":"Cyprès Chauve","info":{"genre":"Taxodium","espece":"distichum"},"id":"c054c9c2b5833f59bd08e538079885b8f8ecbf0d","geo":{"type":"Point","coordinates":[2.312430810854227,48.83726874374722]},"meta":{"arrondissement":"PARIS 15E ARRDT","adresse":"SQUARE PIERRE-ADRIEN DALPAYRAT"}},{"taille":{"h":0,"p":0},"nom":"Cyprès Chauve","info":{"genre":"Taxodium","espece":"distichum"},"id":"a07abee971133a2d8628432c4d38d79ef7899889","geo":{"type":"Point","coordinates":[2.456554783803857,48.82199046155996]},"meta":{"arrondissement":"BOIS DE VINCENNES","adresse":"ARBORETUM DE L ECOLE DU BREUIL - ROUTE DE LA FERME / ROUTE DE LA PYRAMIDE"}},{"taille":{"h":0,"p":0},"nom":"Cyprès Chauve","info":{"genre":"Taxodium","espece":"distichum"},"id":"89ffb553e7b740bdaec54718eb5bc7a5f7d83f3e","geo":{"type":"Point","coordinates":[2.27511059957066,48.841114822334944]},"meta":{"arrondissement":"PARIS 15E ARRDT","adresse":"PARC ANDRE CITROEN"}}]